FID,gid,geom,id,ciad,localidade_id,nome,tipo,efetivacao,fir,jurisdicao,latitude_dec,longitude_dec,latitude,longitude,elevacao,elev_uom,tipo_util,cat_sigla,opr,wh,cidade,uf,utc,emenda_n,emenda,airport_pk
airport.120,120,MULTIPOINT ((-47.585833333333 -20.876944444444)),8788b279-07d6-400e-b84c-ccdb2c7ccf58,SP0063,SDBA,Batatais,AD,2023-02-16,SBBS,CINDACTA 1,-20.87694444,-47.58583333, 20 52 37S, 047 35 09W,881,M,PUB,NAC,VFR DIURNA,HJ,Batatais,SP,-3,7/23,2023-03-23,140
airport.2333,2333,MULTIPOINT ((-47.809444444444 -15.854444444444)),d1b4a488-5428-4400-b14c-921768730afa,DF0007,SSGP,Piquet,AD,2020-05-07,SBBS,CINDACTA 1,-15.85444444,-47.80944444,15 51 16S,047 48 34W,1088,M,PRIV,NAC,VFR,,Brasília,DF,-3,19/20,2023-03-23,1971
airport.606,606,MULTIPOINT ((-54.591666666667 -22.787222222222)),7e6f27b1-e696-446d-8704-ef94daf75777,MS0183,SJSA,Fazenda Aimoré,AD,2022-08-31,SBCW,CINDACTA 2,-22.78722222,-54.59166667,22 47 14S,054 35 30W,372,M,PRIV,NAC,VFR DIURNA,HJ,Juti,MS,-4,35/22,2023-03-23,1511
airport.4762,4762,MULTIPOINT ((-63.729722222222 2.497777777778)),36ddb554-fac4-4a67-ae23-f05c1e285df4,RR0049,SJLF,Homoxi,AD,2018-07-19,SBAZ,CINDACTA 4,2.49777778,-63.72972222,02 29 52N,063 43 47W,696,M,PRIV,NAC,VFR DIURNA,HJ,Iracema,RR,-4,29/18,2023-03-23,1405
airport.4385,4385,MULTIPOINT ((-53.3525 -21.241388888889)),08229db4-ae0a-4e83-8b56-deff09926be5,MS0043,SDPZ,Sossego,AD,2018-07-19,SBCW,CINDACTA 2,-21.24138889,-53.3525,21 14 29S,053 21 09W,363,M,PRIV,NAC,VFR DIURNA,HJ,Ribas do Rio Pardo,MS,-4,29/18,2023-03-23,850
airport.2226,2226,MULTIPOINT ((-56.548611111111 -29.190833333333)),06319001-d5cb-4af8-827f-09d1d19bfd59,RS0070,SIVZ,Mata-Fome,AD,2020-07-23,SBCW,CINDACTA 2,-29.19083333,-56.54861111,29 11 27S,056 32 55W,67,M,PRIV,NAC,VFR DIURNA,HJ,Itaqui,RS,-3,30/20,2023-03-23,1206
airport.4247,4247,MULTIPOINT ((-52.04 -13.255)),6fd0f13c-42df-4195-9c3a-840979d5fb36,MT0328,SWBJ,Fazenda Itarema,AD,2018-07-19,SBBS,CINDACTA 1,-13.255,-52.04,13 15 18S,052 02 24W,408,M,PRIV,NAC,VFR DIURNA,HJ,Canarana,MT,-4,29/18,2023-03-23,2204
airport.3785,3785,MULTIPOINT ((-58.893888888889 -13.943888888889)),e3e88181-a80a-43f0-9fbe-6eae38cd03e3,MT0375,SWOT,Fazenda Planorte,AD,2018-07-19,SBAZ,CINDACTA 4,-13.94388889,-58.89388889,13 56 38S,058 53 38W,647,M,PRIV,NAC,VFR DIURNA,HJ,Sapezal,MT,-4,29/18,2023-03-23,2369
airport.3408,3408,MULTIPOINT ((-55.055833333333 -23.885277777778)),d8999b40-906b-406f-b393-5102b0f30f41,MS0024,SDBI,Fazenda Piray,AD,2018-07-19,SBCW,CINDACTA 2,-23.88527778,-55.05583333,23 53 07S,055 03 21W,354,M,PRIV,NAC,VFR DIURNA,HJ,Sete Quedas,MS,-4,29/18,2023-03-23,3825
airport.1457,1457,MULTIPOINT ((-55.99 -15.643611111111)),700534a0-5503-45ee-9d31-f1edd57bbc98,MT0149,SIXM,Cifi,AD,2021-08-12,SBAZ,CINDACTA 4,-15.64361111,-55.99,15 38 37S,055 59 24W,206,M,PRIV,NAC,VFR DIURNA,HJ,Cuiabá,MT,-4,33/20,2023-03-23,4059
airport.4421,4421,MULTIPOINT ((-39.068611111111 -11.155)),1557fa7b-aa47-45d7-95a5-6365dd10c7e9,BA0170,SSXS,Sidel,AD,2018-07-19,SBRE,CINDACTA 3,-11.155,-39.06861111,11 09 18S,039 04 07W,304,M,PRIV,NAC,VFR DIURNA,HJ,Araci,BA,-3,29/18,2023-03-23,5327
airport.3270,3270,MULTIPOINT ((-35.218611111111 -5.738055555556)),007da037-4320-423f-9052-398333aada8e,RN0010,SSAZ,Stratus Ale,AD,2018-07-19,SBRE,CINDACTA 3,-5.73805556,-35.21861111,05 44 17S,035 13 07W,5,M,PRIV,NAC,VFR DIURNA,HJ,Natal,RN,-3,29/18,2023-03-23,5677
airport.2782,2782,MULTIPOINT ((-58.001666666667 -12.099444444444)),8c9f1e36-d4b8-4f88-98d0-3f12ec17b902,MT0044,SDNB,Brasnorte,AD,2018-10-18,SBAZ,CINDACTA 4,-12.09944444,-58.00166667, 12 05 58S, 058 00 06W,323,M,PRIV,NAC,VFR DIURNA,HJ,Brasnorte,MT,-4,42/18,2023-03-23,5955
airport.2370,2370,MULTIPOINT ((-45.964722222222 -11.788333333333)),05387946-7371-463e-95f1-78618b5a6a76,BA0115,SJJL,Fazenda Campo Aberto,AD,2020-02-27,SBRE,CINDACTA 3,-11.78833333,-45.96472222,11 47 18S,045 57 53W,737,M,PRIV,NAC,VFR DIURNA,HJ,Barreiras,BA,-3,9/20,2023-03-23,1376
airport.587,587,MULTIPOINT ((-35.530833333333 -5.381944444444)),aaea759b-585d-4914-ba5e-6a550cf4d2fd,RN9002,SNXX,Maxaranguape,AD,2022-09-01,SBRE,CINDACTA 3,-5.38194444,-35.53083333, 05 22 55S, 035 31 51W,92.93,M,MIL,NAC,IFR DIURNA,H24,Maxaranguape,RN,-3,36/22,2023-03-23,3617
airport.1959,1959,MULTIPOINT ((-57.278333333333 -16.18)),d6f13956-5c6e-4c95-8a4f-733bb7f73eee,MT0606,SBOZ,Fazenda Arizona,AD,2020-11-19,SBAZ,CINDACTA 4,-16.18,-57.27833333, 16 10 48S, 057 16 42W,152,M,PRIV,NAC,VFR DIURNA,HJ,Cáceres,MT,-4,47/20,2023-03-23,6475
airport.1907,1907,MULTIPOINT ((-41.769166666667 -4.334444444444)),6f418810-eb1f-400a-8616-082f6a31991e,PI0068,SWAY,Piripiri,AD,2020-12-17,SBRE,CINDACTA 3,-4.33444444,-41.76916667, 04 20 04S, 041 46 09W,171,M,PRIV,NAC,VFR DIURNA,H24,Piripiri,PI,-3,51/20,2023-03-23,6532
airport.1436,1436,MULTIPOINT ((-47.641388888889 -14.883888888889)),a0d2ecde-a9bc-4116-b11d-e00a0a3ef7bf,GO0236,SD72,Fazenda São João do Monge,AD,2021-09-02,SBBS,CINDACTA 1,-14.88388889,-47.64138889, 14 53 02S, 047 38 29W,1099,M,PRIV,NAC,VFR DIURNA,HJ,Água Fria de Goiás,GO,-3,36/21,2023-03-23,6649
airport.1669,1669,MULTIPOINT ((-49.195555555556 -14.878055555556)),1cac5748-4150-4473-ad5e-2129fe89d053,GO0262,SSYA,Fazenda Tropical ,AD,2021-04-01,SBBS,CINDACTA 1,-14.87805556,-49.19555556, 14 52 41S, 049 11 44W,565,M,PRIV,NAC,VFR DIURNA,H24,São Luiz do Norte,GO,-3,14/21,2023-03-23,6610
airport.4585,4585,MULTIPOINT ((-47.516388888889 -3.739166666667)),ae8896c1-47a9-4378-bce1-099547f3d957,PA0041,SIAW,Sítio Gurupi,AD,2018-07-19,SBAZ,CINDACTA 4,-3.73916667,-47.51638889,03 44 21S,047 30 59W,128,M,PRIV,NAC,VFR DIURNA,HJ,Ulianópolis,PA,-3,29/18,2023-03-23,3659
airport.1400,1400,MULTIPOINT ((-53.761666666667 -14.500833333333)),e9fc2c7d-9943-4e08-b6cd-bf387b2a8970,MT0770,SDH6,Giongo Participações - Fazenda Victória,AD,2021-09-23,SBAZ,CINDACTA 4,-14.50083333,-53.76166667, 14 30 03S, 053 45 42W,528,M,PRIV,NAC,VFR DIURNA,HJ,Paranatinga,MT,-4,39/21,2023-03-23,6845
airport.1250,1250,MULTIPOINT ((-52.734722222222 -14.901666666667)),60ef666d-4b81-458f-b960-393a29b93464,MT0351,SWIH,Fazenda Felicidade,AD,2021-12-16,SBBS,CINDACTA 1,-14.90166667,-52.73472222, 14 54 06S, 052 44 05W,413,M,PRIV,NAC,VFR DIURNA,HJ,Novo São Joaquim,MT,-4,51/21,2023-03-23,3747
airport.26,26,MULTIPOINT ((-40.9375 -9.1575)),5f3b25c1-9710-4558-8928-5d5b91c042cd,BA0054,SDFX,Casa Nova,AD,2023-03-16,SBRE,CINDACTA 3,-9.1575,-40.9375, 09 09 27S, 040 56 15W,405,M,PUB,NAC,VFR DIURNA,HJ,Casa Nova,BA,-3,11/23,2023-03-23,153
airport.1103,1103,MULTIPOINT ((-40.948611111111 -18.771944444444)),6952502a-2faa-4f74-a7b0-4e9adef69772,MG0207,SWWM,Mantena,AD,2022-02-17,SBRE,CINDACTA 3,-18.77194444,-40.94861111, 18 46 19S, 040 56 55W,202,M,PRIV,NAC,VFR DIURNA,HJ,Mantena,MG,-3,8/22,2023-03-23,2471
airport.1090,1090,MULTIPOINT ((-55.822777777778 -21.290555555556)),211cf1a0-b2f0-4865-8fdd-68e49fa58779,MS0207,SNHK,Fazenda Caacupê,AD,2022-02-17,SBCW,CINDACTA 2,-21.29055556,-55.82277778, 21 17 26S, 055 49 22W,314,M,PRIV,NAC,VFR DIURNA,HJ,Nioaque,MS,-4,8/22,2023-03-23,4948
airport.1099,1099,MULTIPOINT ((-46.51 -15.842777777778)),0eae41cf-8e3b-4e1e-8adb-861e1b774b6b,MG0509,SI2A,Canduá II,AD,2022-02-17,SBBS,CINDACTA 1,-15.84277778,-46.51, 15 50 34S, 046 30 36W,922,M,PRIV,NAC,VFR DIURNA,HJ,Unaí,MG,-3,8/22,2023-03-23,7024
airport.1012,1012,MULTIPOINT ((-57.593888888889 -11.800277777778)),27967ecc-de0e-451e-84d3-f50d0c1dd4e7,MT0756,SJ4U,Fazenda Juara,AD,2022-03-17,SBAZ,CINDACTA 4,-11.80027778,-57.59388889, 11 48 01S, 057 35 38W,330,M,PRIV,NAC,VFR DIURNA,HJ,Juara,MT,-4,12/22,2023-03-23,7072
airport.1004,1004,MULTIPOINT ((-40.277222222222 -15.244444444444)),3ba948be-6815-4d8c-8206-db7aa0a6c0f4,BA0057,SNIP,Itapetinga,AD,2022-03-24,SBRE,CINDACTA 3,-15.24444444,-40.27722222, 15 14 40S, 040 16 38W,270,M,PUB,NAC,VFR DIURNA,HJ,Itapetinga,BA,-3,13/22,2023-03-23,323
airport.995,995,MULTIPOINT ((-45.291944444444 -18.468611111111)),bfe86d54-fa0d-419f-8977-30b09ab9a115,MG0541,SJ4X,Fazenda Caiçara,AD,2022-03-24,SBBS,CINDACTA 1,-18.46861111,-45.29194444, 18 28 07S, 045 17 31W,605,M,PRIV,NAC,VFR DIURNA,HJ,Três Marias,MG,-3,13/22,2023-03-23,7080
airport.975,975,MULTIPOINT ((-52.499722222222 -11.384166666667)),a37ea271-c1a2-42a5-b3f1-36618c2b69e3,MT0784,SI44,Fazenda Três Rodas da Barra,AD,2022-03-24,SBAZ,CINDACTA 4,-11.38416667,-52.49972222, 11 23 03S, 052 29 59W,324,M,PRIV,NAC,VFR DIURNA,HJ,São Félix do Araguaia,MT,-4,13/22,2023-03-23,7087
airport.835,835,MULTIPOINT ((-50.372222222222 -30.033611111111)),4725e01a-6b96-4ee0-a5d7-26b34b617bb2,RS0062,SIID,Fazenda Dona Chica,AD,2022-06-16,SBCW,CINDACTA 2,-30.03361111,-50.37222222, 30 02 01S, 050 22 20W,8,M,PRIV,NAC,VFR DIURNA,HJ,Osório,RS,-3,25/22,2023-03-23,5557
airport.929,929,MULTIPOINT ((-47.556111111111 -20.143888888889)),8044036f-5073-45b1-ba70-db55521d78a6,SP1368,SI46,Fazenda Primavera,AD,2022-04-07,SBBS,CINDACTA 1,-20.14388889,-47.55611111, 20 08 38S, 047 33 22W,920,M,PRIV,NAC,VFR DIURNA,HJ,Pedregulho,SP,-3,15/22,2023-03-23,7094
airport.930,930,MULTIPOINT ((-58.639444444444 -11.283333333333)),c5fd42cb-ee73-4226-9a9f-afdbb31fe89d,MT0776,SI4F,Solag Aviação Agrícola,AD,2022-04-07,SBAZ,CINDACTA 4,-11.28333333,-58.63944444, 11 17 00S, 058 38 22W,394,M,PRIV,NAC,VFR DIURNA,HJ,Juína,MT,-4,15/22,2023-03-23,7095
airport.894,894,MULTIPOINT ((-45.886388888889 -9.136388888889)),10103eb2-fcb9-450b-b7ee-ff6bbde92445,PI0092,SI97,Santa Filomena,AD,2022-05-12,SBRE,CINDACTA 3,-9.13638889,-45.88638889, 09 08 11S, 045 53 11W,350,M,PRIV,NAC,VFR DIURNA,HJ,Santa Filomena,PI,-3,20/22,2023-03-23,7113
airport.872,872,MULTIPOINT ((-46.859722222222 -20.4325)),916daf85-c80d-4e93-a622-0cfb661059a7,MG0167,SJ38,Fazenda Itatuba,AD,2022-05-19,SBBS,CINDACTA 1,-20.4325,-46.85972222, 20 25 57S, 046 51 35W,689,M,PRIV,NAC,VFR DIURNA,HJ,Cássia,MG,-3,21/22,2023-03-23,7114
airport.851,851,MULTIPOINT ((-48.114166666667 -5.685833333333)),76e5257e-b6ea-4325-a61a-c9351797cbb5,TO0005,SJGU,Araguatins,AD,2022-06-09,SBAZ,CINDACTA 4,-5.68583333,-48.11416667, 05 41 09S, 048 06 51W,125,M,PUB,NAC,VFR DIURNA,HJ,Araguatins,TO,-3,24/22,2023-03-23,234
airport.849,849,MULTIPOINT ((-40.329722222222 -17.823055555556)),6510467f-bf02-41ae-ad72-5da7813718c9,MG0041,SNNU,Nanuque,AD,2022-06-09,SBRE,CINDACTA 3,-17.82305556,-40.32972222, 17 49 23S, 040 19 47W,200,M,PUB,NAC,VFR DIURNA,HJ,Nanuque,MG,-3,24/22,2023-03-23,378
airport.433,433,MULTIPOINT ((-53.063333333333 -26.058888888889)),39348d4f-f0d3-4273-a5b6-1b585e719a47,PR0021,SSFB,Francisco Beltrão,AD,2022-11-03,SBCW,CINDACTA 2,-26.05888889,-53.06333333, 26 03 32S, 053 03 48W,644,M,PUB,NAC,VFR,H24,Francisco Beltrão,PR,-3,45/22,2023-03-23,503
airport.844,844,MULTIPOINT ((-38.486944444444 -11.125277777778)),164cf1d4-bbf4-44f2-8869-e193257ea0a4,BA0010,SNIO,Cipó,AD,2022-06-16,SBRE,CINDACTA 3,-11.12527778,-38.48694444, 11 07 31S, 038 29 13W,223,M,PUB,NAC,VFR DIURNA,HJ,Cipó,BA,-3,25/22,2023-03-23,322
airport.786,786,MULTIPOINT ((-49.118611111111 -11.125)),2b55bf50-9228-4686-b500-8643b5c5a454,TO0108,SI6F,Fazenda Alegria,AD,2022-07-07,SBBS,CINDACTA 1,-11.125,-49.11861111, 11 07 30S, 049 07 07 W,280,M,PRIV,NAC,VFR DIURNA,HJ,Crixás do Tocantins,TO,-3,28/22,2023-03-23,7137
airport.678,678,MULTIPOINT ((-46.617777777778 -16.181388888889)),ddc41219-5d51-4826-97a0-43f6dd0301c1,MG0511,SI7M,Fazenda Giboia THS,AD,2022-08-11,SBBS,CINDACTA 1,-16.18138889,-46.61777778, 16 10 53S, 046 37 04 W,973,M,PRIV,NAC,VFR DIURNA,HJ,Unaí,MG,-3,33/22,2023-03-23,7210
airport.731,731,MULTIPOINT ((-56.437222222222 -22.046944444444)),d2c71779-ee83-44b6-8a4e-4dd9430b4a85,MS0646,SI7J,Fazenda Marilândia,AD,2022-07-28,SBCW,CINDACTA 2,-22.04694444,-56.43722222, 22 02 49S, 056 26 14W,235,M,PRIV,NAC,VFR DIURNA,HJ,Bela Vista,MS,-4,31/22,2023-03-23,7211
airport.703,703,MULTIPOINT ((-52.258888888889 -25.678055555556)),ce088f3d-d496-455e-98b9-0b8970576738,PR0191,SJ4S,Fazenda Candoara,AD,2022-08-04,SBCW,CINDACTA 2,-25.67805556,-52.25888889, 25 40 41S, 052 15 32W,723,M,PRIV,NAC,VFR DIURNA,HJ,Candói,PR,-3,32/22,2023-03-23,7212
airport.713,713,MULTIPOINT ((-36.321666666667 -9.703333333333)),168e2086-0cb5-4120-a8e2-8854d8ef5816,AL0045,SI7T,Fazenda Santa Rita,AD,2022-08-04,SBRE,CINDACTA 3,-9.70333333,-36.32166667, 09 42 12S, 036 19 18W,197,M,PRIV,NAC,VFR DIURNA,HJ,Anadia,AL,-3,32/22,2023-03-23,7213
airport.805,805,MULTIPOINT ((-56.623611111111 -11.034444444444)),5cfc2742-5be9-4583-b230-ba7db425d771,MT0832,SI6R,Fazenda Tolimã,AD,2022-06-30,SBAZ,CINDACTA 4,-11.03444444,-56.62361111, 11 02 04S, 056 37 25W,448,M,PRIV,NAC,VFR DIURNA,HJ,Tabaporã,MT,-4,27/22,2023-03-23,7167
airport.802,802,MULTIPOINT ((-46.111944444444 -10.224166666667)),f16db38e-fedb-4249-954a-07f77b656cc4,TO0111,SJ2P,Merlin Agro,AD,2022-06-30,SBRE,CINDACTA 3,-10.22416667,-46.11194444, 10 13 27S, 046 06 43W,798,M,PRIV,NAC,VFR DIURNA,HJ,Mateiros,TO,-3,27/22,2023-03-23,7160
airport.815,815,MULTIPOINT ((-43.520555555556 -5.849722222222)),33e82896-3d90-44d6-9fde-173cf949563e,MA0141,SJ4D,Fazenda Tiúba,AD,2022-06-30,SBRE,CINDACTA 3,-5.84972222,-43.52055556, 05 50 59S, 043 31 14W,190,M,PRIV,NAC,VFR DIURNA,HJ,Parnarama,MA,-3,27/22,2023-03-23,7162
airport.812,812,MULTIPOINT ((-56.912777777778 -11.163333333333)),41e05121-e537-4634-b754-07af8b1bfbb2,MT0849,SI6N,Fazenda Borchardt,AD,2022-06-30,SBAZ,CINDACTA 4,-11.16333333,-56.91277778, 11 09 48S, 056 54 46W,346,M,PRIV,NAC,VFR DIURNA,HJ,Tabaporã,MT,-4,27/22,2023-03-23,7169
airport.655,655,MULTIPOINT ((-57.3525 -21.010555555556)),288d5b68-fa21-4818-ae77-4c169ac2247d,MS0064,SIAD,Estância Regina,AD,2022-08-18,SBCW,CINDACTA 2,-21.01055556,-57.3525, 21 00 38S, 057 21 09W,168,M,PRIV,NAC,VFR DIURNA,HJ,Porto Murtinho,MS,-4,34/22,2023-03-23,967
airport.460,460,MULTIPOINT ((-66.841666666667 1.120555555556)),184b1db9-bdf2-4050-b643-f7fdb1b236c3,AM0048,SWKU,Cucuí,AD,2022-10-27,SBAZ,CINDACTA 4,1.12055556,-66.84166667, 01 07 14N, 066 50 30W,83.67,M,PRIV,NAC,VFR DIURNA,HJ,São Gabriel da Cachoeira,AM,-4,44/22,2023-03-23,652
airport.817,817,MULTIPOINT ((-43.653611111111 -10.721666666667)),601f6c31-5ff5-4e99-b5fa-21ddce8050a8,BA0053,SNTQ,Buritirama,AD,2022-06-23,SBRE,CINDACTA 3,-10.72166667,-43.65361111, 10 43 18S, 043 39 13W,499,M,PUB,NAC,VFR DIURNA,HJ,Buritirama,BA,-3,26/22,2023-03-23,434
airport.819,819,MULTIPOINT ((-56.266111111111 -6.373333333333)),57cdd1d7-ef6e-45bd-adaf-fd721bfdc832,PA0314,SJ6N,Gana Gold Mineração,AD,2022-06-23,SBAZ,CINDACTA 4,-6.37333333,-56.26611111, 06 22 24S, 056 15 58W,200,M,PRIV,NAC,VFR,H24,Itaituba,PA,-3,26/22,2023-03-23,7140
airport.827,827,MULTIPOINT ((-55.658611111111 1.440555555556)),8a0425d5-d499-4c37-9a38-27222ff6ea34,PA0252,SI2H,Aldeia Pedra da Onça,AD,2022-06-23,SBAZ,CINDACTA 4,1.44055556,-55.65861111, 01 26 26N, 055 39 31W,313,M,PRIV,NAC,VFR DIURNA,HJ,Óbidos,PA,-3,26/22,2023-03-23,7141
airport.818,818,MULTIPOINT ((-55.54 -11.783055555556)),da50832c-89cf-4c41-b228-8aa484e66ec0,MT0061,SDTA,Tasi,AD,2022-06-23,SBAZ,CINDACTA 4,-11.78305556,-55.54,11 46 59S,055 32 24W,368,M,PRIV,NAC,VFR DIURNA,HJ,Sinop,MT,-4,26/22,2023-03-23,7150
airport.2816,2816,MULTIPOINT ((-61.121388888889 1.844166666667)),60ce56f8-eb33-456a-b066-6a7d1eab039b,RR9001,SBQI,CARACARAI,AD,2018-09-27,SBAZ,CINDACTA 4,1.84416667,-61.12138889, 01 50 39N, 061 07 17W,56,M,MIL,NAC,VFR DIURNA,HJ,Caracaraí,RR,-4,39/18,2023-03-23,7267
airport.555,555,MULTIPOINT ((-55.664444444444 -16.295277777778)),4f9dc3d3-1a5a-4100-a7e7-09894b8d1b5c,MT0854,SJ29,Fazenda Ricardo Franco,AD,2022-09-22,SBAZ,CINDACTA 4,-16.29527778,-55.66444444, 16 17 43S, 055 39 52W,142,M,PRIV,NAC,VFR DIURNA,HJ,Santo Antônio do Leverger,MT,-4,39/22,2023-03-23,7269
airport.550,550,MULTIPOINT ((-55.3 -13.263333333333)),2b26e0d9-7ca3-4b40-a8d4-711f1e2c76b6,MT0853,SI9T,Fazenda Recanto do Céu,AD,2022-09-22,SBAZ,CINDACTA 4,-13.26333333,-55.3, 13 15 48S, 055 18 00W,449,M,PRIV,NAC,VFR DIURNA,HJ,Nova Ubiratã,MT,-4,39/22,2023-03-23,7270
airport.574,574,MULTIPOINT ((-41.525833333333 -7.061388888889)),361a94a6-1f09-4de5-a021-efe58a3123b9,PI0009,SNPC,Picos,AD,2022-09-08,SBRE,CINDACTA 3,-7.06138889,-41.52583333, 07 03 41S, 041 31 33W,335,M,PUB,NAC,VFR DIURNA,HJ,Picos,PI,-3,37/22,2023-03-23,389
airport.417,417,MULTIPOINT ((-49.799444444444 -25.401111111111)),9c664665-3a06-4d1e-9e15-9be0ac3df3cd,PR0058,SJOY,Jorge Luiz Stocco,AD,2022-11-10,SBCW,CINDACTA 2,-25.40111111,-49.79944444, 25 24 04S, 049 47 58W,1048.02,M,PRIV,NAC,VFR IFR,H24,Palmeira,PR,-3,46/22,2023-03-23,5594
airport.74,74,MULTIPOINT ((-51.521666666667 -25.388055555556)),5e0397ab-f905-456a-8936-315b9b14e307,PR0009,SSGG,Aeroporto Regional de Guarapuava - Tancredo Thomás de Faria,AD,2023-03-02,SBCW,CINDACTA 2,-25.38805556,-51.52166667, 25 23 17S, 051 31 18W,1065,M,PUB,NAC,VFR IFR,H24,Guarapuava,PR,-3,9/23,2023-03-23,75
airport.87,87,MULTIPOINT ((-43.385555555556 -21.793055555556)),1118d419-3cdf-4810-a211-60e559e16c0e,MG0016,SBJF,FRANCISCO DE ASSIS,AD,2023-02-23,SBCW,CINDACTA 2,-21.79305556,-43.38555556, 21 47 35S, 043 23 08W,911,M,PUB,NAC,VFR IFR,,Juiz de Fora,MG,-3,8/23,2023-03-23,86
airport.426,426,MULTIPOINT ((-47.334166666667 -22.781388888889)),f47e0d71-f96b-4957-8509-8b933e8622bb,SP0194,SIQK,Nova Odessa,AD,2022-11-03,SBBS,CRCEA-SE,-22.78138889,-47.33416667, 22 46 53S, 047 20 03W,580,M,PRIV,NAC,VFR DIURNA,HJ,Nova Odessa,SP,-3,45/22,2023-03-23,1140
airport.3852,3852,MULTIPOINT ((-57.646666666667 -21.910833333333)),4282cbbd-e6d6-4b83-9fc6-189e193dd6cf,MS0302,SSLP,Fazenda Lucero Porã,AD,2018-07-19,SBCW,CINDACTA 2,-21.91083333,-57.64666667,21 54 39S,057 38 48W,91,M,PRIV,NAC,VFR DIURNA,HJ,Porto Murtinho,MS,-4,29/18,2023-03-23,2042
airport.1329,1329,MULTIPOINT ((-45.933055555556 -21.431666666667)),790dcf46-35df-4cb3-a214-5e4c0c95f50d,MG0012,SNFE,Alfenas,AD,2021-11-04,SBBS,CINDACTA 1,-21.43166667,-45.93305556, 21 25 54S, 045 55 59W,879,M,PUB,NAC,VFR,H24,Alfenas,MG,-3,45/21,2023-03-23,296
airport.3584,3584,MULTIPOINT ((-44.865277777778 -20.714444444444)),5b69d002-c4a2-4933-8b92-df8bfb1394c6,MG0049,SNRZ,Oliveira,AD,2018-07-19,SBBS,CINDACTA 1,-20.71444444,-44.86527778, 20 42 52S, 044 51 55W,982,M,PUB,NAC,VFR,H24,Oliveira,MG,-3,29/18,2023-03-23,417
airport.795,795,MULTIPOINT ((-41.855 -9.7575)),4357e767-c6db-4a35-b6cd-a3c60f09b147,BA0056,SNSE,Sento Sé,AD,2022-06-30,SBRE,CINDACTA 3,-9.7575,-41.855, 09 45 27S, 041 51 18W,398,M,PUB,NAC,VFR DIURNA,HJ,Sento Sé,BA,-3,27/22,2023-03-23,420
airport.1014,1014,MULTIPOINT ((-42.466111111111 -18.198611111111)),68769f22-9674-4901-9898-1b3543469fe8,MG0076,SNSI,Santa Maria do Suaçuí,AD,2022-03-17,SBBS,CINDACTA 1,-18.19861111,-42.46611111, 18 11 55S, 042 27 58W,480,M,PUB,NAC,VFR DIURNA,HJ,Santa Maria do Suaçuí,MG,-3,12/22,2023-03-23,422
airport.2548,2548,MULTIPOINT ((-57.879166666667 -21.712777777778)),8aa564b1-f827-4a87-a615-b01c5b9030d4,MS0013,SSPM,Porto Murtinho,AD,2019-07-25,SBCW,CINDACTA 2,-21.71277778,-57.87916667, 21 42 46S, 057 52 45W,81,M,PUB,NAC,VFR DIURNA,HJ,Porto Murtinho,MS,-4,30/19,2023-03-23,554
airport.2320,2320,MULTIPOINT ((-49.818888888889 -23.674444444444)),c002bb0d-e205-446a-a1a1-b7a41215275b,PR0029,SSQC,Siqueira Campos,AD,2020-05-28,SBCW,CINDACTA 2,-23.67444444,-49.81888889, 23 40 28S, 049 49 08W,705,M,PUB,NAC,VFR DIURNA,HJ,Siqueira Campos,PR,-3,22/20,2023-03-23,558
airport.4194,4194,MULTIPOINT ((-39.286111111111 -10.465277777778)),c707140e-b27c-4404-a67f-88bc257af063,BA0061,SSQP,Monte Santo,AD,2018-07-19,SBRE,CINDACTA 3,-10.46527778,-39.28611111, 10 27 55S, 039 17 10W,443,M,PUB,NAC,VFR DIURNA,HJ,Monte Santo,BA,-3,29/18,2023-03-23,561
airport.4221,4221,MULTIPOINT ((-49.960277777778 -24.8075)),b4296a90-babf-48c9-92b2-7f4038133919,PR0013,SSQT,Castro,AD,2018-07-19,SBCW,CINDACTA 2,-24.8075,-49.96027778, 24 48 27S, 049 57 37W,1010,M,PUB,NAC,VFR DIURNA,HJ,Castro,PR,-3,29/18,2023-03-23,562
airport.5,5,MULTIPOINT ((-48.491944444444 -14.436388888889)),1a3e8d93-4015-4727-a097-192ae470c942,GO0016,SWNQ,NIQUELANDIA,AD,2023-03-23,SBBS,CINDACTA 1,-14.43638889,-48.49194444, 14 26 11S, 048 29 31W,840,M,PUB,NAC,VFR DIURNA,,Niquelândia,GO,-3,12/23,2023-03-23,671
airport.2489,2489,MULTIPOINT ((-57.333888888889 -11.516944444444)),16cb1f1b-56b8-4761-a579-6365a06ca513,MT0010,SWPG,PORTO DOS GAÚCHOS,AD,2019-09-26,SBAZ,CINDACTA 4,-11.51694444,-57.33388889, 11 31 01S, 057 20 02W,400,M,PUB,NAC,VFR DIURNA,HJ,Porto dos Gaúchos,MT,-4,39/19,2023-03-23,678
airport.1308,1308,MULTIPOINT ((-53.383055555556 -12.199166666667)),6aeb8f9a-8576-435b-90c0-98c19733b4f5,MT0027,SWPL,POSTO LEONARDO VILAS BOAS,AD,2021-11-11,SBAZ,CINDACTA 4,-12.19916667,-53.38305556, 12 11 57S, 053 22 59W,288,M,PRIV,NAC,VFR DIURNA,HJ,Chapada dos Guimarães,MT,-4,46/21,2023-03-23,681
airport.3322,3322,MULTIPOINT ((-68.545555555556 0.124722222222)),63807c1d-cbe8-4ab5-a986-a85ce529f20a,AM0054,SWTR,Taraquá,AD,2018-07-19,SBAZ,CINDACTA 4,0.12472222,-68.54555556,00 07 29N,068 32 44W,75,M,PRIV,NAC,VFR DIURNA,HJ,São Gabriel da Cachoeira,AM,-4,29/18,2023-03-23,704
airport.3836,3836,MULTIPOINT ((-46.400555555556 -12.433888888889)),ef5d5222-07d5-4c1c-afaa-a052c8411264,TO0009,SWTY,TAGUATINGA,AD,2018-07-19,SBRE,CINDACTA 3,-12.43388889,-46.40055556, 12 26 02S, 046 24 02W,597,M,PUB,NAC,VFR DIURNA,,Taguatinga,TO,-3,29/18,2023-03-23,706
airport.4198,4198,MULTIPOINT ((-69.200555555556 1.216388888889)),b237f85b-551f-4276-94c6-53f49f910d71,AM0055,SWUK,Uapui-Cachoeira,AD,2018-07-19,SBAZ,CINDACTA 4,1.21638889,-69.20055556,01 12 59N,069 12 02W,76,M,PRIV,NAC,VFR DIURNA,HJ,São Gabriel da Cachoeira,AM,-4,29/18,2023-03-23,710
airport.1001,1001,MULTIPOINT ((-63.646944444444 2.835277777778)),67cda6df-d447-4607-887a-72c94e983bf3,RR0113,SWUQ,Surucucu,AD,2022-03-24,SBAZ,CINDACTA 4,2.83527778,-63.64694444, 02 50 07N, 063 38 49W,916.8,M,PRIV,NAC,VFR DIURNA,HJ,Alto Alegre,RR,-4,13/22,2023-03-23,712
airport.102,102,MULTIPOINT ((-47.968611111111 -16.261666666667)),9419e410-e20d-4c4d-9756-4d9f55e95f51,GO0025,SWUZ,BRIGADEIRO ARARIPE MACEDO,AD,2023-02-23,SBBS,CINDACTA 1,-16.26166667,-47.96861111, 16 15 42S, 047 58 07W,996,M,PUB,NAC,VFR DIURNA,,Luziânia,GO,-3,8/23,2023-03-23,713
airport.22,22,MULTIPOINT ((-49.157222222222 -13.404444444444)),3bb12ad5-9047-41f2-b26f-bf36b8f3c958,GO0012,SWWA,PORANGATU,AD,2023-03-16,SBBS,CINDACTA 1,-13.40444444,-49.15722222, 13 24 16S, 049 09 26W,366,M,PUB,NAC,VFR,,Porangatu,GO,-3,11/23,2023-03-23,716
airport.825,825,MULTIPOINT ((-39.108055555556 -16.541388888889)),55d0928c-8e41-4d4d-84d6-942552442929,BA0068,SBTV,Terravista,AD,2022-06-23,SBRE,CINDACTA 3,-16.54138889,-39.10805556,16 32 29S,039 06 29W,50,M,PRIV,NAC,VFR,,Porto Seguro,BA,-3,26/22,2023-03-23,727
airport.2967,2967,MULTIPOINT ((-47.719166666667 -22.156666666667)),38f5ace7-68ea-4ee9-aebc-fe571b2e3908,SP0077,SDAF,Fazenda Palmeiras,AD,2018-07-19,SBBS,CINDACTA 1,-22.15666667,-47.71916667,22 09 24S,047 43 09W,854,M,PRIV,NAC,VFR,,Analândia,SP,-3,29/18,2023-03-23,728
airport.3227,3227,MULTIPOINT ((-51.283333333333 -21.275277777778)),6c194905-2c69-45ee-9056-88d4110a1914,SP0079,SDAS,Fazenda Santo Antônio,AD,2018-07-19,SBCW,CINDACTA 2,-21.27527778,-51.28333333,21 16 31S,051 17 00W,352,M,PRIV,NAC,VFR DIURNA,HJ,Mirandópolis,SP,-3,29/18,2023-03-23,730
airport.2932,2932,MULTIPOINT ((-47.5575 -23.687222222222)),05b24f86-dccb-47e3-a139-e75a8bacdb75,SP0080,SDBN,Associação Recreativa Fazenda Bonanza,AD,2018-07-19,SBCW,CRCEA-SE,-23.68722222,-47.5575,23 41 14S,047 33 27W,706,M,PRIV,NAC,VFR,,Salto de Pirapora,SP,-3,29/18,2023-03-23,731
airport.3775,3775,MULTIPOINT ((-47.758333333333 -24.870833333333)),5327ff1b-56e6-434e-b4a1-e3c721bb3d6d,SP0081,SDBV,Balneário São Januário,AD,2018-07-19,SBCW,CINDACTA 2,-24.87083333,-47.75833333,24 52 15S,047 45 30W,8,M,PRIV,NAC,VFR DIURNA,HJ,Ilha Comprida,SP,-3,29/18,2023-03-23,732
airport.4733,4733,MULTIPOINT ((-53.591111111111 -17.686944444444)),6ae54048-e190-4088-af75-edb0bd5a7e85,MT0032,SDCJ,Fazenda São Domingos,AD,2018-07-19,SBBS,CINDACTA 1,-17.68694444,-53.59111111,17 41 13S,053 35 28W,568,M,PRIV,NAC,VFR DIURNA,HJ,Alto Araguaia,MT,-4,29/18,2023-03-23,734
airport.3448,3448,MULTIPOINT ((-49.208888888889 -23.154166666667)),8ccbfdc1-0dc4-42a1-8016-3e148c177507,SP0083,SDCL,Fazenda Campo Alegre,AD,2018-07-19,SBCW,CINDACTA 2,-23.15416667,-49.20888889,23 09 15S,049 12 32W,665,M,PRIV,NAC,VFR DIURNA,HJ,Cerqueira César,SP,-3,29/18,2023-03-23,735
airport.4287,4287,MULTIPOINT ((-46.1625 -12.863333333333)),1e4ea79b-9d9e-426c-bda9-bd4825a59fa8,BA0069,SDCM,Sete Povos,AD,2018-07-19,SBBS,CINDACTA 1,-12.86333333,-46.1625,12 51 48S,046 09 45W,901,M,PRIV,NAC,VFR DIURNA,HJ,São Desidério,BA,-3,29/18,2023-03-23,736
airport.4710,4710,MULTIPOINT ((-46.828888888889 -24.070555555556)),cb81ab86-dd1a-4b3c-a66a-8972252db42e,SP0084,SDCR,Fazenda Caiçara,AD,2018-07-19,SBCW,CRCEA-SE,-24.07055556,-46.82888889,24 04 14S,046 49 44W,12,M,PRIV,NAC,VFR DIURNA,HJ,Itanhaém,SP,-3,29/18,2023-03-23,737
airport.4283,4283,MULTIPOINT ((-49.985833333333 -22.481388888889)),602681e3-3884-4d1a-95a3-dc707f75cff7,SP0088,SDDK,Saint-Exupéry,AD,2018-07-19,SBCW,CINDACTA 2,-22.48138889,-49.98583333,22 28 53S,049 59 09W,575,M,PRIV,NAC,VFR DIURNA,HJ,Ocauçu,SP,-3,29/18,2023-03-23,744
airport.4821,4821,MULTIPOINT ((-45.508888888889 -11.694166666667)),ab52a193-aaa5-48a3-a882-795d5b67af8e,BA0071,SDDQ,Fazenda São Francisco,AD,2018-07-19,SBRE,CINDACTA 3,-11.69416667,-45.50888889,11 41 39S,045 30 32W,756,M,PRIV,NAC,VFR DIURNA,HJ,Riachão das Neves,BA,-3,29/18,2023-03-23,745
airport.2926,2926,MULTIPOINT ((-48.846111111111 -21.129444444444)),28aee16a-ec10-45a1-9d27-9930dd9a6b64,SP0089,SDDV,Usina Catanduva,AD,2018-07-19,SBBS,CINDACTA 1,-21.12944444,-48.84611111,21 07 37S,048 50 41W,567,M,PRIV,NAC,VFR DIURNA,HJ,Palmares Paulista,SP,-3,29/18,2023-03-23,746
airport.2472,2472,MULTIPOINT ((-50.504444444444 -19.884166666667)),5203099a-248f-438c-83ce-eb39bc3c633c,SP0090,SDDX,Fazenda Paiquerê,AD,2019-10-10,SBBS,CINDACTA 1,-19.88416667,-50.50444444, 19 53 03S, 050 30 16W,430,M,PRIV,NAC,VFR DIURNA,HJ,Populina,SP,-3,41/19,2023-03-23,747
airport.3586,3586,MULTIPOINT ((-51.451666666667 -22.101111111111)),7c8eb5b2-ebc0-4420-aa71-eeabadaf118b,SP0094,SDEM,Estância Machado,AD,2018-07-19,SBCW,CINDACTA 2,-22.10111111,-51.45166667,22 06 04S,051 27 06W,423,M,PRIV,NAC,VFR DIURNA,HJ,Álvares Machado,SP,-3,29/18,2023-03-23,753
airport.4728,4728,MULTIPOINT ((-48.659444444444 -21.878611111111)),7c96f82e-03d8-4922-a8b5-75c6af83a507,SP0095,SDEO,Fazenda Entre Rios,AD,2018-07-19,SBBS,CINDACTA 1,-21.87861111,-48.65944444,21 52 43S,048 39 34W,521,M,PRIV,NAC,VFR DIURNA,HJ,Ibitinga,SP,-3,29/18,2023-03-23,755
airport.3726,3726,MULTIPOINT ((-50.855 -20.765555555556)),3a3ac819-4177-46a5-b0e6-e69593f467f7,SP0096,SDER,Fazenda Entre Rios,AD,2018-07-19,SBBS,CINDACTA 1,-20.76555556,-50.855,20 45 56S,050 51 18W,370,M,PRIV,NAC,VFR DIURNA,HJ,Sud Mennucci,SP,-3,29/18,2023-03-23,756
airport.4692,4692,MULTIPOINT ((-47.861944444444 -20.761944444444)),c291dab5-51c8-43c6-a5d8-b22f8ca801e3,SP0097,SDES,Estância Colorado,AD,2018-07-19,SBBS,CINDACTA 1,-20.76194444,-47.86194444,20 45 43S,047 51 43W,723,M,PRIV,NAC,VFR DIURNA,HJ,Sales Oliveira,SP,-3,29/18,2023-03-23,757
airport.3098,3098,MULTIPOINT ((-49.188888888889 -20.488888888889)),ff1acb1a-9db4-4467-a5c2-60ef7a70e7ff,SP0098,SDFC,Fazenda Constância,AD,2018-07-19,SBBS,CINDACTA 1,-20.48888889,-49.18888889,20 29 20S,049 11 20W,509,M,PRIV,NAC,VFR DIURNA,HJ,Altair,SP,-3,29/18,2023-03-23,760
airport.2936,2936,MULTIPOINT ((-47.371944444444 -21.445)),df617e62-8306-47e3-ab3a-ba4b44f9a155,SP0099,SDFH,Fazenda Amália,AD,2018-07-19,SBBS,CINDACTA 1,-21.445,-47.37194444,21 26 42S,047 22 19W,707,M,PRIV,NAC,VFR DIURNA,HJ,Santa Rosa de Viterbo,SP,-3,29/18,2023-03-23,763
airport.4817,4817,MULTIPOINT ((-46.808888888889 -22.415277777778)),dfc0c8bc-2de6-436d-8daa-248fcabf83bb,SP0101,SDFT,Virgolino de Oliveira,AD,2018-07-19,SBBS,CINDACTA 1,-22.41527778,-46.80888889,22 24 55S,046 48 32W,656,M,PRIV,NAC,VFR DIURNA,HJ,Itapira,SP,-3,29/18,2023-03-23,768
airport.3375,3375,MULTIPOINT ((-52.163055555556 -21.870555555556)),59366d0f-0587-4d5a-9502-64b6684c25fe,SP0102,SDFU,Fazenda Ponte Funda,AD,2018-07-19,SBCW,CINDACTA 2,-21.87055556,-52.16305556,21 52 14S,052 09 47W,295,M,PRIV,NAC,VFR DIURNA,HJ,Presidente Epitácio,SP,-3,29/18,2023-03-23,769
airport.3612,3612,MULTIPOINT ((-48.181944444444 -20.276944444444)),14ac4c0e-258c-49af-8e0a-d4313aef7bbe,SP0103,SDGB,Usina Colorado,AD,2018-07-19,SBBS,CINDACTA 1,-20.27694444,-48.18194444,20 16 37S,048 10 55W,606,M,PRIV,NAC,VFR DIURNA,HJ,Guaíra,SP,-3,29/18,2023-03-23,771
airport.3923,3923,MULTIPOINT ((-50.743055555556 -20.9275)),e81f4356-0631-459b-a58c-6c39c3984cb6,SP0104,SDGY,Fazenda Anhangaí,AD,2018-07-19,SBBS,CINDACTA 1,-20.9275,-50.74305556,20 55 39S,050 44 35W,360,M,PRIV,NAC,VFR DIURNA,HJ,Araçatuba,SP,-3,29/18,2023-03-23,775
airport.1206,1206,MULTIPOINT ((-49.980833333333 -21.87)),8e685ae1-a973-40b0-8e2a-2f71e0445925,SP0105,SDHC,Fazenda Koga,AD,2022-01-06,SBBS,CINDACTA 1,-21.87,-49.98083333,21 52 12S,049 58 51W,394,M,PRIV,NAC,VFR DIURNA,HJ,Getulina,SP,-3,2/22,2023-03-23,776
airport.4066,4066,MULTIPOINT ((-46.843055555556 -22.491666666667)),ba0f0a76-c6df-4e97-bf21-a4c438d073ab,SP0106,SDHE,Fazenda Herdade,AD,2018-07-19,SBBS,CRCEA-SE,-22.49166667,-46.84305556,22 29 30S,046 50 35W,740,M,PRIV,NAC,VFR DIURNA,HJ,Itapira,SP,-3,29/18,2023-03-23,777
airport.4329,4329,MULTIPOINT ((-53.283333333333 -21.161666666667)),665b7e99-59d9-4efc-8a2d-b9411cc4f4f2,MS0032,SDHP,Modelo II,AD,2018-07-19,SBCW,CINDACTA 2,-21.16166667,-53.28333333, 21 09 42S, 053 17 00W,369,M,PRIV,NAC,VFR DIURNA,HJ,Ribas do Rio Pardo,MS,-4,29/18,2023-03-23,778
airport.2994,2994,MULTIPOINT ((-51.535 -30.749722222222)),184fc2e2-c3e9-4b52-ad38-02349b8a180c,RS0055,SDHX,D'Tapes,AD,2018-07-19,SBCW,CINDACTA 2,-30.74972222,-51.535,30 44 59S,051 32 06W,40,M,PRIV,NAC,VFR DIURNA,HJ,Tapes,RS,-3,29/18,2023-03-23,779
airport.3628,3628,MULTIPOINT ((-46.775833333333 -22.160555555556)),58219bcd-4bd4-4fb5-95f0-e91f222ba689,SP0107,SDIB,Irmãos  Ribeiro,AD,2018-07-19,SBBS,CINDACTA 1,-22.16055556,-46.77583333, 22 09 38S, 046 46 33W,925,M,PRIV,NAC,VFR DIURNA,HJ,Espírito Santo do Pinhal,SP,-3,29/18,2023-03-23,780
airport.4769,4769,MULTIPOINT ((-46.069444444444 -23.565555555556)),8d7376b0-8fe0-426a-b486-222356225ab8,SP0108,SDIH,Fazenda Irohy,AD,2018-07-19,SBCW,CRCEA-SE,-23.56555556,-46.06944444, 23 33 56S, 046 04 10W,752,M,PRIV,NAC,VFR DIURNA,HJ,Biritiba-Mirim,SP,-3,29/18,2023-03-23,781
airport.3822,3822,MULTIPOINT ((-44.288055555556 -22.902222222222)),f7adae64-3021-41c8-b7f3-3c8df218ac9f,RJ0015,SDIL,Fazenda Pedra Branca,AD,2018-07-19,SBCW,CRCEA-SE,-22.90222222,-44.28805556,22 54 08S,044 17 17W,16,M,PRIV,NAC,VFR,,Angra dos Reis,RJ,-3,29/18,2023-03-23,782
airport.897,897,MULTIPOINT ((-48.832777777778 -21.599722222222)),aec12ec9-2881-4e50-ab47-1d38b356715f,SP0109,SDIO,Aeroclube de Itápolis,AD,2022-05-05,SBBS,CINDACTA 1,-21.59972222,-48.83277778, 21 35 59S, 048 49 58W,557,M,PRIV,NAC,VFR,H24,Itápolis,SP,-3,19/22,2023-03-23,784
airport.3755,3755,MULTIPOINT ((-45.775555555556 -23.043333333333)),78b689f6-e01c-4164-99ce-8431ea20fad3,SP0110,SDIP,Fazenda Centro de Vôo a Vela Ipuã,AD,2018-07-19,SBCW,CRCEA-SE,-23.04333333,-45.77555556,23 02 36S,045 46 32W,583,M,PRIV,NAC,VFR DIURNA,HJ,Caçapava,SP,-3,29/18,2023-03-23,785
airport.761,761,MULTIPOINT ((-47.861944444444 -22.194722222222)),6ff30046-9cc9-4553-a275-5150e169f4d3,SP0111,SDJA,Dr. José Augusto de Arruda Botelho,AD,2022-07-14,SBBS,CINDACTA 1,-22.19472222,-47.86194444,22 11 41S,047 51 43W,783,M,PRIV,NAC,VFR,,Itirapina,SP,-3,29/22,2023-03-23,788
airport.3561,3561,MULTIPOINT ((-48.4475 -23.846111111111)),85796a2a-d9c9-40df-8f34-b195ef81f3d9,SP0112,SDJF,Fazenda Jequitibá,AD,2018-07-19,SBCW,CINDACTA 2,-23.84611111,-48.4475,23 50 46S,048 26 51W,704,M,PRIV,NAC,VFR DIURNA,HJ,Buri,SP,-3,29/18,2023-03-23,789
airport.3316,3316,MULTIPOINT ((-47.733888888889 -21.096666666667)),8ad6caec-c315-4f8b-aabb-443d04da725c,SP0114,SDJN,Fazenda São Luiz,AD,2018-07-19,SBBS,CINDACTA 1,-21.09666667,-47.73388889,21 05 48S,047 44 02W,589,M,PRIV,NAC,VFR DIURNA,HJ,Jardinópolis,SP,-3,29/18,2023-03-23,790
airport.4542,4542,MULTIPOINT ((-60.241666666667 4.727222222222)),35258699-61fc-4777-8564-9566c1481373,RR0003,SDJS,Andorinha,AD,2018-07-19,SBAZ,CINDACTA 4,4.72722222,-60.24166667,04 43 38N,060 14 30W,224,M,PRIV,NAC,VFR DIURNA,HJ,Uiramutã,RR,-4,29/18,2023-03-23,793
airport.4306,4306,MULTIPOINT ((-59.835 4.165)),fd1342eb-9c6e-4974-b698-c1bbafe12541,RR0004,SDKA,Angical,AD,2018-07-19,SBAZ,CINDACTA 4,4.165,-59.835,04 09 54N,059 50 06W,56,M,PRIV,NAC,VFR DIURNA,HJ,Normandia,RR,-4,29/18,2023-03-23,795
airport.379,379,MULTIPOINT ((-49.462222222222 -22.303611111111)),c8d8cea8-6523-476e-a2cd-71b75dcd466e,SP0116,SDKC,Fazenda São Lucas,AD,2022-11-21,SBBS,CINDACTA 1,-22.30361111,-49.46222222,22 18 13S,049 27 44W,540,M,PRIV,NAC,VFR DIURNA,HJ,Gália,SP,-3,47/22,2023-03-23,796
airport.3419,3419,MULTIPOINT ((-59.777222222222 3.836666666667)),97e38e8a-db86-4c3c-b3ca-78023df1a16c,RR0005,SDKL,Caracaranã,AD,2018-07-19,SBAZ,CINDACTA 4,3.83666667,-59.77722222,03 50 12N,059 46 38W,33,M,PRIV,NAC,VFR DIURNA,HJ,Normandia,RR,-4,29/18,2023-03-23,798
airport.3894,3894,MULTIPOINT ((-48.788611111111 -20.257777777778)),2f490f97-6b47-4bed-b0d1-7fd7dec00845,SP0117,SDKO,Fazenda Campo Grande,AD,2018-07-19,SBBS,CINDACTA 1,-20.25777778,-48.78861111,20 15 28S,048 47 19W,558,M,PRIV,NAC,VFR DIURNA,HJ,Colômbia,SP,-3,29/18,2023-03-23,800
airport.4459,4459,MULTIPOINT ((-60.47 4.558055555556)),c2beb3f9-7101-4b0e-92b4-c924db29cb74,RR0006,SDKZ,Caraparu 4,AD,2018-07-19,SBAZ,CINDACTA 4,4.55805556,-60.47,04 33 29N,060 28 12W,239,M,PRIV,NAC,VFR DIURNA,HJ,Uiramutã,RR,-4,29/18,2023-03-23,805
airport.1444,1444,MULTIPOINT ((-48.524444444444 -22.483333333333)),f323286a-90fe-4428-88a2-714b7134db67,SP0119,SDLU,Fazenda Santa Luíza,AD,2021-09-02,SBBS,CINDACTA 1,-22.48333333,-48.52444444, 22 29 00S, 048 31 28W,543,M,PRIV,NAC,VFR,H24,Barra Bonita,SP,-3,36/21,2023-03-23,810
airport.4172,4172,MULTIPOINT ((-48.392777777778 -21.629444444444)),08a84a50-6ab8-4632-b7c4-327f3e0d32c8,SP0121,SDME,Marchesan S.A,AD,2018-07-19,SBBS,CINDACTA 1,-21.62944444,-48.39277778,21 37 46S,048 23 34W,590,M,PRIV,NAC,VFR,,Matão,SP,-3,29/18,2023-03-23,816
airport.3402,3402,MULTIPOINT ((-63.746944444444 2.675833333333)),bb005cb6-8738-4f0f-8e47-01bae07c90d1,RR0008,SDMG,HAXIU,AD,2018-07-19,SBAZ,CINDACTA 4,2.67583333,-63.74694444,02 40 33N,063 44 49W,120,M,PRIV,NAC,VFR DIURNA,HJ,Alto Alegre,RR,-4,29/18,2023-03-23,817
airport.4145,4145,MULTIPOINT ((-60.786111111111 4.557777777778)),b32949d9-a471-4a12-b873-0654ba650787,RR0009,SDMM,Lago Verde,AD,2018-07-19,SBAZ,CINDACTA 4,4.55777778,-60.78611111,04 33 28N,060 47 10W,330,M,PRIV,NAC,VFR DIURNA,HJ,Pacaraima,RR,-4,29/18,2023-03-23,819
airport.1396,1396,MULTIPOINT ((-48.604166666667 -22.274444444444)),7783714c-fec0-49ce-9bfa-bbd1da93c3b5,SP0123,SDMV,Fazenda Morro Vermelho,AD,2021-09-30,SBBS,CINDACTA 1,-22.27444444,-48.60416667,22 16 28S,048 36 15W,529,M,PRIV,NAC,VFR DIURNA,HJ,Jaú,SP,-3,40/21,2023-03-23,821
airport.4257,4257,MULTIPOINT ((-50.682222222222 -14.112222222222)),cbf0d03b-b8e9-427b-88bc-9ba565982fa5,GO0041,SDMW,Fazenda Karajá,AD,2018-07-19,SBBS,CINDACTA 1,-14.11222222,-50.68222222,14 06 45S,050 40 51W,254,M,PRIV,NAC,VFR DIURNA,HJ,Nova Crixás,GO,-3,29/18,2023-03-23,822
airport.1300,1300,MULTIPOINT ((-55.381666666667 -15.502777777778)),0c0124f6-599a-42d1-933e-c7217fb52e57,MT0043,SDMX,Fazenda Fontana,AD,2021-11-18,SBAZ,CINDACTA 4,-15.50277778,-55.38166667, 15 30 10S, 055 22 54W,696,M,PRIV,NAC,VFR DIURNA,HJ,Campo Verde,MT,-4,47/21,2023-03-23,823
airport.4600,4600,MULTIPOINT ((-48.995277777778 -19.671944444444)),20e842de-9016-4082-b09f-de654cfb2143,MG0085,SDNA,Fazenda Vale Verde,AD,2018-07-19,SBBS,CINDACTA 1,-19.67194444,-48.99527778,19 40 19S,048 59 43W,712,M,PRIV,NAC,VFR DIURNA,HJ,Comendador Gomes,MG,-3,29/18,2023-03-23,825
airport.4524,4524,MULTIPOINT ((-51.529722222222 -22.482222222222)),f02abdcd-6073-4b0f-8de3-031ae0e2fa72,SP0125,SDND,Fazenda Nova Damasco,AD,2018-07-19,SBCW,CINDACTA 2,-22.48222222,-51.52972222,22 28 56S,051 31 47W,430,M,PRIV,NAC,VFR DIURNA,HJ,Narandiba,SP,-3,29/18,2023-03-23,826
airport.3823,3823,MULTIPOINT ((-51.976388888889 -22.198611111111)),4ec200e8-4468-496c-8168-532c776ee6e3,SP0126,SDNE,Fazenda São Joaquim,AD,2018-07-19,SBCW,CINDACTA 2,-22.19861111,-51.97638889,22 11 55S,051 58 35W,483,M,PRIV,NAC,VFR DIURNA,HJ,Marabá Paulista,SP,-3,29/18,2023-03-23,827
airport.4382,4382,MULTIPOINT ((-54.058333333333 -14.965)),716c33b2-3fe6-43b1-841c-acf0d117e9c8,MT0046,SDNK,Fazenda Vitória,AD,2018-07-19,SBAZ,CINDACTA 4,-14.965,-54.05833333,14 57 54S,054 03 30W,711,M,PRIV,NAC,VFR DIURNA,HJ,Primavera do Leste,MT,-4,29/18,2023-03-23,830
airport.4626,4626,MULTIPOINT ((-46.754444444444 -21.425277777778)),eb6411db-1f00-4cb4-b809-35512799205c,SP0129,SDOB,Fazenda São José O.B.,AD,2018-07-19,SBBS,CINDACTA 1,-21.42527778,-46.75444444,21 25 31S,046 45 16W,803,M,PRIV,NAC,VFR DIURNA,HJ,Tapiratiba,SP,-3,29/18,2023-03-23,836
airport.1231,1231,MULTIPOINT ((-47.691944444444 -23.298055555556)),49ecd425-bc28-4a34-8193-513c5e17a08f,SP0130,SDOI,Centro Nacional de Pára-Quedismo,AD,2021-12-16,SBCW,CRCEA-SE,-23.29805556,-47.69194444,23 17 53S,047 41 31W,625,M,PRIV,NAC,VFR DIURNA,HJ,Boituva,SP,-3,51/21,2023-03-23,839
airport.3243,3243,MULTIPOINT ((-56.907777777778 -12.4425)),97012788-e0ff-4be7-a541-2ef69935e23f,MT0050,SDOL,Fazenda Agropesp,AD,2018-07-19,SBAZ,CINDACTA 4,-12.4425,-56.90777778, 12 26 33S, 056 54 28W,302,M,PRIV,NAC,VFR DIURNA,HJ,Tapurah,MT,-4,29/18,2023-03-23,840
airport.4183,4183,MULTIPOINT ((-47.889444444444 -20.7475)),60500d10-48fe-47b6-bab4-5d2da4038b2f,SP0131,SDOR,Fazenda Mosquito,AD,2018-07-19,SBBS,CINDACTA 1,-20.7475,-47.88944444,20 44 51S,047 53 22W,736,M,PRIV,NAC,VFR DIURNA,HJ,Orlândia,SP,-3,29/18,2023-03-23,841
airport.1402,1402,MULTIPOINT ((-44.08 -22.9275)),fedb7e7f-1561-40a2-8ad0-c32643ff5eb5,RJ0016,SDPA,Fazenda Portobello,AD,2021-09-16,SBCW,CRCEA-SE,-22.9275,-44.08, 22 55 39S, 044 04 48W,6,M,PRIV,NAC,VFR DIURNA,HJ,Mangaratiba,RJ,-3,38/21,2023-03-23,844
airport.2421,2421,MULTIPOINT ((-49.234444444444 -21.497777777778)),3549d0a3-657f-436a-8f89-b2803feee734,SP0060,SDNH,Novo Horizonte,AD,2019-12-12,SBBS,CINDACTA 1,-21.49777778,-49.23444444, 21 29 52S, 049 14 04W,465,M,PUB,NAC,VFR DIURNA,HJ,Novo Horizonte,SP,-3,50/19,2023-03-23,183
airport.4438,4438,MULTIPOINT ((-43.582222222222 -6.782222222222)),9303d833-b494-430d-9231-3fa4447bdba2,PI0005,SNGD,Guadalupe,AD,2018-07-19,SBRE,CINDACTA 3,-6.78222222,-43.58222222, 06 46 56S, 043 34 56W,172,M,PUB,NAC,VFR DIURNA,HJ,Guadalupe,PI,-3,29/18,2023-03-23,304
airport.3564,3564,MULTIPOINT ((-51.133888888889 -7.783611111111)),220dbd9c-95b2-4b60-b2b4-c26664002541,PA0092,SNGR,Gorotire,AD,2018-07-19,SBAZ,CINDACTA 4,-7.78361111,-51.13388889,07 47 01S,051 08 02W,200,M,PRIV,NAC,VFR DIURNA,HJ,Cumaru do Norte,PA,-3,29/18,2023-03-23,309
airport.627,627,MULTIPOINT ((-55.514444444444 -1.868055555556)),e0fbccb0-f063-47f5-b48b-85e793885b37,PA0016,SNTI,Óbidos,AD,2022-08-25,SBAZ,CINDACTA 4,-1.86805556,-55.51444444, 01 52 05S, 055 30 52W,100,M,PUB,NAC,VFR DIURNA,HJ,Óbidos,PA,-3,35/22,2023-03-23,429
airport.314,314,MULTIPOINT ((-53.513055555556 -25.801111111111)),76e1ee4e-bc14-4afa-acd7-e4e7cc1b9d1a,PR0030,SSRE,Realeza,AD,2022-12-22,SBCW,CINDACTA 2,-25.80111111,-53.51305556, 25 48 04S, 053 30 47W,501,M,PUB,NAC,VFR DIURNA,HJ,Realeza,PR,-3,52/22,2023-03-23,565
airport.2220,2220,MULTIPOINT ((-52.540555555556 -28.863333333333)),c6259522-b90a-4b24-9d3a-59143ca92ebb,RS0017,SSSD,Soledade,AD,2020-07-30,SBCW,CINDACTA 2,-28.86333333,-52.54055556, 28 51 48S, 052 32 26W,673,M,PUB,NAC,VFR DIURNA,HJ,Soledade,RS,-3,31/20,2023-03-23,573
airport.1672,1672,MULTIPOINT ((-54.267777777778 -30.345)),93653411-2845-4ccf-84a9-c106ec20c7e8,RS0035,SSSG,São Gabriel,AD,2021-04-01,SBCW,CINDACTA 2,-30.345,-54.26777778, 30 20 42S, 054 16 04W,145,M,PUB,NAC,VFR DIURNA,HJ,São Gabriel,RS,-3,14/21,2023-03-23,574
airport.1942,1942,MULTIPOINT ((-48.564444444444 -26.221111111111)),9fb1dad3-826f-4f3c-acde-29860e5f8d4f,SC0022,SSSS,São Francisco do Sul,AD,2020-12-03,SBCW,CINDACTA 2,-26.22111111,-48.56444444, 26 13 16S, 048 33 52W,15,M,PUB,NAC,VFR DIURNA,HJ,São Francisco do Sul,SC,-3,49/20,2023-03-23,576
airport.4455,4455,MULTIPOINT ((-54.842222222222 -29.215)),9ce9a6c3-61d6-4d1d-929b-4d9c7d0f0558,RS0015,SSST,Santiago,AD,2018-07-19,SBCW,CINDACTA 2,-29.215,-54.84222222, 29 12 54S, 054 50 32W,445,M,PUB,NAC,VFR DIURNA,HJ,Santiago,RS,-3,29/18,2023-03-23,577
airport.1311,1311,MULTIPOINT ((-51.05 -6.763055555556)),5b767768-5ab9-4159-8de7-91d8d1adc724,PA0021,SDOW,Ourilândia do Norte,AD,2021-11-11,SBAZ,CINDACTA 4,-6.76305556,-51.05, 06 45 47S, 051 02 60W,229,M,PUB,NAC,VFR,H24,Ourilândia do Norte,PA,-3,46/21,2023-03-23,188
airport.1948,1948,MULTIPOINT ((-45.431944444444 -22.943888888889)),b017cead-2849-41de-99f8-e9fcd3879771,SP0072,SDPD,Pindamonhangaba,AD,2020-11-26,SBCW,CINDACTA 2,-22.94388889,-45.43194444, 22 56 38S, 045 25 55W,574,M,PUB,NAC,VFR DIURNA,HJ,Pindamonhangaba,SP,-3,48/20,2023-03-23,189
airport.1895,1895,MULTIPOINT ((-51.884444444444 -21.893333333333)),373dfae0-2598-408c-bc87-761d24ad492b,SP0040,SDPV,Pres. Venceslau,AD,2021-01-07,SBCW,CINDACTA 2,-21.89333333,-51.88444444, 21 53 36S, 051 53 04W,445,M,PUB,NAC,VFR DIURNA,HJ,Presidente Venceslau,SP,-3,2/21,2023-03-23,193
airport.1193,1193,MULTIPOINT ((-46.730277777778 -21.326666666667)),4338299e-c867-4dc8-9370-36dc37dbbb9d,MG0023,SNGX,Guaxupé,AD,2022-01-20,SBBS,CINDACTA 1,-21.32666667,-46.73027778, 21 19 36S, 046 43 49W,849,M,PUB,NAC,VFR,H24,Guaxupé,MG,-3,4/22,2023-03-23,312
airport.4556,4556,MULTIPOINT ((-41.846944444444 -11.34)),b86b42bd-5d43-4a36-90de-36b677889eff,BA0019,SNIC,Irecê,AD,2018-07-19,SBRE,CINDACTA 3,-11.34,-41.84694444, 11 20 24S, 041 50 49W,784,M,PUB,NAC,VFR,H24,Irecê,BA,-3,29/18,2023-03-23,316
airport.770,770,MULTIPOINT ((-39.298611111111 -6.347777777778)),e095121e-e14a-4d95-9551-c58c117a4aa5,CE0007,SNIG,Iguatu,AD,2022-07-14,SBRE,CINDACTA 3,-6.34777778,-39.29861111, 06 20 52S, 039 17 55W,213,M,PUB,NAC,VFR,H24,Iguatu,CE,-3,29/22,2023-03-23,318
airport.653,653,MULTIPOINT ((-36.960833333333 -5.595)),59c51790-2d4b-4bb1-b386-f728af19815f,RN0003,SNUC,Açu,AD,2022-08-18,SBRE,CINDACTA 3,-5.595,-36.96083333, 05 35 42S, 036 57 39W,111,M,PUB,NAC,VFR DIURNA,HJ,Açu,RN,-3,34/22,2023-03-23,440
airport.1637,1637,MULTIPOINT ((-42.046111111111 -16.851944444444)),6deb5cf4-f81d-47a5-b222-f5165ceb5955,MG0045,SNUI,Araçuaí,AD,2021-04-22,SBBS,CINDACTA 1,-16.85194444,-42.04611111, 16 51 07S, 042 02 46W,328,M,PUB,NAC,VFR DIURNA,HJ,Araçuaí,MG,-3,17/21,2023-03-23,443
airport.14,14,MULTIPOINT ((-42.841388888889 -20.745)),67e7824e-b8f1-4093-9c10-35ec8e7a94ac,MG0074,SNVC,Viçosa,AD,2023-03-23,SBCW,CINDACTA 2,-20.745,-42.84138889, 20 44 42S, 042 50 29W,659,M,PUB,NAC,VFR DIURNA,HJ,Viçosa,MG,-3,12/23,2023-03-23,449
airport.3416,3416,MULTIPOINT ((-50.309722222222 -26.132777777778)),0bb40a29-9711-466a-a1a2-0b538e3ee63c,SC0013,SSTB,Três Barras,AD,2018-07-19,SBCW,CINDACTA 2,-26.13277778,-50.30972222, 26 07 58S, 050 18 35W,780,M,PUB,NAC,VFR DIURNA,HJ,Três Barras,SC,-3,29/18,2023-03-23,579
airport.2477,2477,MULTIPOINT ((-51.068888888889 -26.231666666667)),6ea723a1-e8f5-4fb8-8a4e-336732912590,PR0034,SSUV,UNIÃO DA VITÓRIA,AD,2019-10-03,SBCW,CINDACTA 2,-26.23166667,-51.06888889, 26 13 54S, 051 04 08W,752,M,PUB,NAC,VFR DIURNA,HJ,União da Vitória,PR,-3,40/19,2023-03-23,583
airport.335,335,MULTIPOINT ((-51.141388888889 -26.999722222222)),baa8394a-b375-40b6-b452-776afa4592fe,SC0011,SSVI,Ângelo Ponzoni,AD,2022-12-08,SBCW,CINDACTA 2,-26.99972222,-51.14138889, 26 59 59S, 051 08 29W,840,M,PUB,NAC,VFR DIURNA,H24,Videira,SC,-3,50/22,2023-03-23,585
airport.2781,2781,MULTIPOINT ((-51.567777777778 -28.935555555556)),bf169b83-4e7a-488a-bbef-398ba14a77ad,RS0030,SSVN,VERANÓPOLIS,AD,2018-10-25,SBCW,CINDACTA 2,-28.93555556,-51.56777778, 28 56 08S, 051 34 04W,676,M,PUB,NAC,VFR DIURNA,HJ,Veranópolis,RS,-3,43/18,2023-03-23,586
airport.4823,4823,MULTIPOINT ((-52.373055555556 -26.875555555556)),fd2a096e-4c97-449c-a1b4-2862c9caa8d2,SC0017,SSXX,MUNICIPAL JOÃO WINCKLER,AD,2018-07-19,SBCW,CINDACTA 2,-26.87555556,-52.37305556, 26 52 32S, 052 22 23W,910,M,PUB,NAC,VFR,H24,Xanxerê,SC,-3,29/18,2023-03-23,592
airport.638,638,MULTIPOINT ((-39.684166666667 -14.173333333333)),d7cd0908-9858-4b7d-8692-a03145d9eb66,BA0030,SNIU,Ipiaú,AD,2022-08-25,SBRE,CINDACTA 3,-14.17333333,-39.68416667, 14 10 24S, 039 41 03W,132,M,PUB,NAC,VFR DIURNA,HJ,Ipiaú,BA,-3,35/22,2023-03-23,325
airport.1780,1780,MULTIPOINT ((-50.443333333333 -1.636388888889)),3740ec71-b0df-4f37-9589-209d6391069d,PA0015,SNVS,Breves,AD,2021-02-18,SBAZ,CINDACTA 4,-1.63638889,-50.44333333, 01 38 11S, 050 26 36W,30,M,PUB,NAC,VFR DIURNA,HJ,Breves,PA,-3,8/21,2023-03-23,453
airport.503,503,MULTIPOINT ((-40.704166666667 -5.211111111111)),44e50f09-acc6-491b-8953-86d259b2e422,CE0005,SNWS,Crateús,AD,2022-10-13,SBRE,CINDACTA 3,-5.21111111,-40.70416667, 05 12 40S, 040 42 15W,318,M,PUB,NAC,VFR,H24,Crateús,CE,-3,42/22,2023-03-23,457
airport.1309,1309,MULTIPOINT ((-42.683333333333 -10.834166666667)),5c4d2621-e8d6-4feb-ba6a-ed948ab3700f,BA0018,SNXQ,XIQUE-XIQUE,AD,2021-11-11,SBRE,CINDACTA 3,-10.83416667,-42.68333333, 10 50 03S, 042 41 00W,427,M,PUB,NAC,VFR DIURNA,,Xique-Xique,BA,-3,46/21,2023-03-23,460
airport.267,267,MULTIPOINT ((-52.578055555556 -1.479166666667)),013c2248-5c07-4f92-a06d-02f47d928902,PA0024,SNYA,Aeródromo Público de Almeirim,AD,2022-12-29,SBAZ,CINDACTA 4,-1.47916667,-52.57805556, 01 28 45S, 052 34 41W,178,M,PUB,NAC,VFR DIURNA,HJ,Almeirim,PA,-3,53/22,2023-03-23,462
airport.4091,4091,MULTIPOINT ((-49.487222222222 -19.001944444444)),11e2c775-1e81-4156-91fe-602b985fd1e9,MG0047,SNYB,Ituiutaba,AD,2018-07-19,SBBS,CINDACTA 1,-19.00194444,-49.48722222, 19 00 07S, 049 29 14W,605,M,PUB,NAC,VFR DIURNA,HJ,Ituiutaba,MG,-3,29/18,2023-03-23,463
airport.4696,4696,MULTIPOINT ((-63.182222222222 3.545)),e6f55cea-71c1-448c-a840-8c2bf95a4b85,RR0106,SWAE,Uaicas,AD,2018-07-19,SBAZ,CINDACTA 4,3.545,-63.18222222,03 32 42N,063 10 56W,330,M,PRIV,NAC,VFR DIURNA,HJ,Alto Alegre,RR,-4,29/18,2023-03-23,597
airport.2311,2311,MULTIPOINT ((-34.841944444444 -7.091666666667)),3d39fda3-addd-42da-95db-c926e03258f6,PB0002,SNJO,AEROCLUBE,AD,2020-06-04,SBRE,CINDACTA 3,-7.09166667,-34.84194444, 07 05 30S, 034 50 31W,6,M,PUB,NAC,VFR DIURNA,H24,João Pessoa,PB,-3,23/20,2023-03-23,334
airport.746,746,MULTIPOINT ((-45.919444444444 -22.288888888889)),8bffeaf5-fe71-49f3-a69a-94971e0f94ef,MG0038,SNZA,Pouso Alegre,AD,2022-07-21,SBBS,CINDACTA 1,-22.28888889,-45.91944444, 22 17 20S, 045 55 10W,885,M,PUB,NAC,VFR DIURNA,HJ,Pouso Alegre,MG,-3,30/22,2023-03-23,468
airport.2630,2630,MULTIPOINT ((-67.383888888889 1.799722222222)),6f83c8c8-b770-40e5-af90-5885a10b727d,AM0043,SWAO,Anamoim,AD,2019-05-30,SBAZ,CINDACTA 4,1.79972222,-67.38388889,01 47 59N,067 23 02W,102,M,PRIV,NAC,VFR DIURNA,HJ,São Gabriel da Cachoeira,AM,-4,22/19,2023-03-23,600
airport.4579,4579,MULTIPOINT ((-62.409444444444 3.763333333333)),d68b6826-2bc2-4294-a9f1-ee4394b3387c,RR0107,SWAQ,Érico,AD,2018-07-19,SBAZ,CINDACTA 4,3.76333333,-62.40944444,03 45 48N,062 24 34W,210,M,PRIV,NAC,VFR DIURNA,HJ,Amajari,RR,-4,29/18,2023-03-23,601
airport.2633,2633,MULTIPOINT ((-69.300555555556 0.399722222222)),bd961145-f4ae-48f6-8d8f-16a78e6785e3,AM0044,SWAZ,Santo Atanázio,AD,2019-05-30,SBAZ,CINDACTA 4,0.39972222,-69.30055556,00 23 59N,069 18 02W,120,M,PRIV,NAC,VFR DIURNA,HJ,São Gabriel da Cachoeira,AM,-4,22/19,2023-03-23,603
airport.1998,1998,MULTIPOINT ((-49.557777777778 -8.837777777778)),9dbf24e9-79be-4e2a-9c7e-4cb2c0e8c31c,TO0007,SJAU,Araguacema,AD,2020-10-22,SBAZ,CINDACTA 4,-8.83777778,-49.55777778, 08 50 16S, 049 33 28W,207,M,PUB,NAC,VFR DIURNA,HJ,Araguacema,TO,-3,43/20,2023-03-23,231
airport.3096,3096,MULTIPOINT ((-57.117222222222 -8.116944444444)),b8a5b682-5125-4f22-8eb0-efc40cf51019,PA0093,SNKH,Creputiá,AD,2018-07-19,SBAZ,CINDACTA 4,-8.11694444,-57.11722222,08 07 01S,057 07 02W,300,M,PRIV,NAC,VFR DIURNA,HJ,Jacareacanga,PA,-3,29/18,2023-03-23,344
airport.1241,1241,MULTIPOINT ((-50.264722222222 -23.763055555556)),9a80bf4c-94d6-4dfd-b5f7-cad64a7e675c,PR0024,SSAB,Moisés Lupion,AD,2021-12-16,SBCW,CINDACTA 2,-23.76305556,-50.26472222, 23 45 47S, 050 15 53W,600,M,PUB,NAC,VFR DIURNA,HJ,Ibaiti,PR,-3,51/21,2023-03-23,472
airport.2785,2785,MULTIPOINT ((-53.055833333333 -32.229166666667)),6dc0782b-6a8d-45ae-85a3-f953a6146221,RS0040,SSAE,Arroio Grande,AD,2018-10-18,SBCW,CINDACTA 2,-32.22916667,-53.05583333, 32 13 45S, 053 03 21W,49,M,PUB,NAC,VFR DIURNA,HJ,Arroio Grande,RS,-3,42/18,2023-03-23,473
airport.2733,2733,MULTIPOINT ((-50.228333333333 -23.026944444444)),b4a04385-7442-4ea6-b91b-065b69eea216,PR0032,SSAN,ANDIRA,AD,2018-12-13,SBCW,CINDACTA 2,-23.02694444,-50.22833333, 23 01 37S, 050 13 42W,490,M,PUB,NAC,VFR DIURNA,,Andirá,PR,-3,50/18,2023-03-23,476
airport.820,820,MULTIPOINT ((-52.516666666667 -28.250555555556)),93b17272-24b7-4844-a912-1b73cb873a5c,RS0036,SSAQ,Aeroclube,AD,2022-06-23,SBCW,CINDACTA 2,-28.25055556,-52.51666667, 28 15 02S, 052 31 00W,600,M,PUB,NAC,VFR DIURNA,HJ,Passo Fundo,RS,-3,26/22,2023-03-23,478
airport.1330,1330,MULTIPOINT ((-64.251666666667 -12.421666666667)),09101a0d-f67c-4b9a-bf18-477cd7ed186e,RO0007,SWCQ,COSTA MARQUES,AD,2021-11-04,SBAZ,CINDACTA 4,-12.42166667,-64.25166667, 12 25 18S, 064 15 06W,169,M,PUB,NAC,VFR DIURNA,,Costa Marques,RO,-4,45/21,2023-03-23,615
airport.292,292,MULTIPOINT ((-50.409166666667 -18.446111111111)),0d7eb649-c71e-41ec-8380-f8fdfcca9c8f,GO0006,SJQN,Quirinópolis,AD,2022-12-22,SBBS,CINDACTA 1,-18.44611111,-50.40916667, 18 26 46S, 050 24 33W,586,M,PUB,NAC,VFR,H24,Quirinópolis,GO,-3,52/22,2023-03-23,238
airport.1440,1440,MULTIPOINT ((-48.190277777778 -18.668055555556)),6e68c860-c439-4aa1-b48b-952c37404dbc,MG0020,SNAG,Araguari,AD,2021-09-02,SBBS,CINDACTA 1,-18.66805556,-48.19027778, 18 40 05S, 048 11 25W,947.7,M,PUB,NAC,VFR DIURNA,HJ,Araguari,MG,-3,36/21,2023-03-23,245
airport.2073,2073,MULTIPOINT ((-45.045277777778 -22.091666666667)),53e2eca5-350d-49b1-a4fe-10a839375fdb,MG0037,SNLO,São Lourenço,AD,2020-09-24,SBCW,CINDACTA 2,-22.09166667,-45.04527778, 22 05 30S, 045 02 43W,875,M,PUB,NAC,VFR DIURNA,HJ,São Lourenço,MG,-3,39/20,2023-03-23,358
airport.2360,2360,MULTIPOINT ((-54.071388888889 -1.996666666667)),9e486c3a-e37d-40f3-a0c2-907d8250c6be,PA0019,SNMA,Monte Alegre,AD,2020-03-26,SBAZ,CINDACTA 4,-1.99666667,-54.07138889, 01 59 48S, 054 04 17W,99,M,PUB,NAC,VFR DIURNA,HJ,Monte Alegre,PA,-3,13/20,2023-03-23,361
airport.45,45,MULTIPOINT ((-52.488055555556 -18.839166666667)),493d6f6a-965a-427a-b53d-3b6d82889d84,MS0007,SSCD,Chapadão do Sul,AD,2023-03-16,SBBS,CINDACTA 1,-18.83916667,-52.48805556, 18 50 21S, 052 29 17W,818,M,PUB,NAC,VFR,H24,Chapadão do Sul,MS,-4,11/23,2023-03-23,487
airport.2709,2709,MULTIPOINT ((-47.345277777778 -15.556111111111)),dfc8e6df-679e-46da-86a3-02e802d0269b,GO0014,SWFR,FORMOSA,AD,2019-02-07,SBBS,CINDACTA 1,-15.55611111,-47.34527778, 15 33 22S, 047 20 43W,971,M,PUB,NAC,VFR DIURNA,,Formosa,GO,-3,6/19,2023-03-23,632
airport.2488,2488,MULTIPOINT ((-45.190555555556 -18.225)),f3315c4f-13e0-4e93-a721-93b63cdb609d,MG0022,SNAS,Três Marias,AD,2019-09-26,SBBS,CINDACTA 1,-18.225,-45.19055556, 18 13 30S, 045 11 26W,786,M,PUB,NAC,VFR DIURNA,HJ,Três Marias,MG,-3,39/19,2023-03-23,253
airport.2462,2462,MULTIPOINT ((-42.583888888889 -17.233888888889)),1a4ab121-8dfc-46e9-a208-6c170928db5b,MG0075,SNMN,Minas Novas,AD,2019-10-24,SBBS,CINDACTA 1,-17.23388889,-42.58388889, 17 14 02S, 042 35 02W,750,M,PUB,NAC,VFR DIURNA,HJ,Minas Novas,MG,-3,43/19,2023-03-23,369
airport.272,272,MULTIPOINT ((-38.983888888889 -14.117222222222)),89019e22-b1eb-4557-9f7d-f934d125d376,BA0065,SNMR,Maraú,AD,2022-12-29,SBRE,CINDACTA 3,-14.11722222,-38.98388889, 14 07 02S, 038 59 02W,20,M,PUB,NAC,VFR DIURNA,HJ,Maraú,BA,-3,53/22,2023-03-23,371
airport.1080,1080,MULTIPOINT ((-52.235833333333 -1.741388888889)),942af761-de2f-4256-b7f5-d3be6508776c,PA0020,SNMZ,Porto de Moz,AD,2022-02-24,SBAZ,CINDACTA 4,-1.74138889,-52.23583333, 01 44 29S, 052 14 09W,16,M,PUB,NAC,VFR DIURNA,HJ,Porto de Moz,PA,-3,9/22,2023-03-23,374
airport.4129,4129,MULTIPOINT ((-52.167222222222 -8.066944444444)),56509630-3dad-4f05-8fcc-9a9d1fd03d42,PA0099,SNNP,Nilo Peçanha,AD,2018-07-19,SBAZ,CINDACTA 4,-8.06694444,-52.16722222,08 04 01S,052 10 02W,300,M,PRIV,NAC,VFR DIURNA,HJ,São Félix do Xingu,PA,-3,29/18,2023-03-23,377
airport.648,648,MULTIPOINT ((-52.642222222222 -23.691666666667)),290497a1-0e48-4522-9a32-52477f7d2f3b,PR0025,SSCT,Engenheiro Gastão de Mesquita Filho,AD,2022-08-23,SBCW,CINDACTA 2,-23.69166667,-52.64222222, 23 41 30S, 052 38 32W,539,M,PUB,NAC,VFR,H24,Cianorte,PR,-3,34/22,2023-03-23,495
airport.3987,3987,MULTIPOINT ((-53.579444444444 -30.182222222222)),c8d22b7f-74c0-43b0-9921-ef1f397caacb,RS0031,SSEP,São Sepé,AD,2018-07-19,SBCW,CINDACTA 2,-30.18222222,-53.57944444, 30 10 56S, 053 34 46W,153,M,PUB,NAC,VFR DIURNA,HJ,São Sepé,RS,-3,29/18,2023-03-23,499
airport.4264,4264,MULTIPOINT ((-59.500555555556 -16.166944444444)),42c30285-9db9-43bb-af8c-5cd99d895aaa,MT0342,SWFU,Fortuna,AD,2018-07-19,SBAZ,CINDACTA 4,-16.16694444,-59.50055556,16 10 01S,059 30 02W,264,M,PRIV,NAC,VFR DIURNA,HJ,Vila Bela da Santíssima Trindade,MT,-4,29/18,2023-03-23,633
airport.1360,1360,MULTIPOINT ((-50.688333333333 -11.631944444444)),3ddc744e-2425-4a4e-880c-59c4e5b78e0c,MT0022,SWFX,São Félix do Araguaia,AD,2021-10-14,SBBS,CINDACTA 1,-11.63194444,-50.68833333, 11 37 55S, 050 41 18W,198,M,PUB,NAC,VFR DIURNA,HJ,São Félix do Araguaia,MT,-4,42/21,2023-03-23,634
airport.1875,1875,MULTIPOINT ((-45.215833333333 -5.5025)),319cc2e3-93c4-4108-8250-9b18de5eb978,MA0006,SNBC,Barra do Corda,AD,2021-01-21,SBAZ,CINDACTA 4,-5.5025,-45.21583333, 05 30 09S, 045 12 57W,155,M,PUB,NAC,VFR DIURNA,HJ,Barra do Corda,MA,-3,4/21,2023-03-23,258
airport.38,38,MULTIPOINT ((-46.3925 -22.297222222222)),0183f1ca-39e1-4d95-afb2-e33845721360,MG0057,SNOF,Ouro Fino,AD,2023-03-16,SBBS,CINDACTA 1,-22.29722222,-46.3925, 22 17 50S, 046 23 33W,857,M,PUB,NAC,VFR DIURNA,HJ,Ouro Fino,MG,-3,11/23,2023-03-23,382
airport.2991,2991,MULTIPOINT ((-46.661944444444 -20.731944444444)),14a761cd-a4d4-4815-bf2e-062d8d1f92c5,MG0024,SNOS,Municipal José Figueiredo,AD,2018-07-19,SBBS,CINDACTA 1,-20.73194444,-46.66194444, 20 43 55S, 046 39 43W,822,M,PUB,NAC,VFR,H24,Passos,MG,-3,29/18,2023-03-23,384
airport.560,560,MULTIPOINT ((-55.835833333333 -1.713611111111)),935b3abe-62be-4ebc-ac81-9a5c4e7d3234,PA0014,SNOX,Oriximiná,AD,2022-09-15,SBAZ,CINDACTA 4,-1.71361111,-55.83583333, 01 42 49S, 055 50 09W,80,M,PUB,NAC,VFR DIURNA,HJ,Oriximiná,PA,-3,38/22,2023-03-23,386
airport.2112,2112,MULTIPOINT ((-51.532222222222 -29.268333333333)),1381d9c4-c5d6-4cf6-9e2b-11ea08a954a8,RS0020,SSGA,Garibaldi,AD,2020-09-03,SBCW,CINDACTA 2,-29.26833333,-51.53222222, 29 16 06S, 051 31 56W,680,M,PUB,NAC,VFR DIURNA,HJ,Garibaldi,RS,-3,36/20,2023-03-23,505
airport.2217,2217,MULTIPOINT ((-53.743333333333 -29.153055555556)),39eabf04-9465-46d2-98c3-595c3f6c717b,RS0028,SSJK,Júlio de Castilhos,AD,2020-08-06,SBCW,CINDACTA 2,-29.15305556,-53.74333333, 29 09 11S, 053 44 36W,498,M,PUB,NAC,VFR DIURNA,HJ,Júlio de Castilhos,RS,-3,32/20,2023-03-23,518
airport.973,973,MULTIPOINT ((-50.036944444444 -29.763611111111)),a051e442-b8ce-4e76-9560-98f0b899696a,RS0052,SSKK,Capão da Canoa,AD,2022-03-31,SBCW,CINDACTA 2,-29.76361111,-50.03694444, 29 45 49S, 050 02 13W,10,M,PUB,NAC,VFR DIURNA,HJ,Capão da Canoa,RS,-3,14/22,2023-03-23,521
airport.624,624,MULTIPOINT ((-69.423611111111 -1.403888888889)),664bff1e-097a-4ceb-898a-93964a74c9c7,AM0046,SWJP,Vila Bittencourt,AD,2022-08-29,SBAZ,CINDACTA 4,-1.40388889,-69.42361111,01 24 14S,069 25 25W,78,M,PRIV,NAC,VFR DIURNA,HJ,Japurá,AM,-4,35/22,2023-03-23,645
airport.3418,3418,MULTIPOINT ((-45.335555555556 -20.8925)),92a5bad8-ee49-4752-ac13-0fd6a36a6845,MG0031,SNCA,Campo Belo,AD,2018-07-19,SBBS,CINDACTA 1,-20.8925,-45.33555556, 20 53 33S, 045 20 08W,970,M,PUB,NAC,VFR DIURNA,HJ,Campo Belo,MG,-3,29/18,2023-03-23,271
airport.1011,1011,MULTIPOINT ((-40.358333333333 -7.051666666667)),9613db19-4e23-4366-ad35-fc02766023af,CE0009,SNCS,Campos Sales,AD,2022-03-17,SBRE,CINDACTA 3,-7.05166667,-40.35833333, 07 03 06S, 040 21 30W,615,M,PUB,NAC,VFR,H24,Campos Sales,CE,-3,12/22,2023-03-23,277
airport.1451,1451,MULTIPOINT ((-41.771944444444 -13.165555555556)),0145825a-5c30-4c71-8fd7-07f198212d46,BA0021,SNPI,De Piatã,AD,2021-08-19,SBRE,CINDACTA 3,-13.16555556,-41.77194444, 13 09 56S, 041 46 19W,1267,M,PRIV,NAC,VFR DIURNA,HJ,Piatã,BA,-3,34/21,2023-03-23,392
airport.1677,1677,MULTIPOINT ((-45.754722222222 -21.561388888889)),649b417e-79f9-45e5-997f-07fb7c677b64,MG0073,SNPU,Paraguaçu,AD,2021-03-25,SBBS,CINDACTA 1,-21.56138889,-45.75472222, 21 33 41S, 045 45 17W,898,M,PUB,NAC,VFR DIURNA,HJ,Paraguaçu,MG,-3,13/21,2023-03-23,398
airport.1903,1903,MULTIPOINT ((-50.603888888889 -27.287222222222)),dd4c9bb9-0e3c-450c-8bcb-6610af4602c1,SC0016,SSKU,Lauro Antônio da Costa,AD,2020-12-24,SBCW,CINDACTA 2,-27.28722222,-50.60388889, 27 17 14S, 050 36 14W,978,M,PUB,NAC,VFR,H24,Curitibanos,SC,-3,52/20,2023-03-23,525
airport.2998,2998,MULTIPOINT ((-55.0375 -28.376388888889)),c761cd98-3e4b-464f-b4ec-e89a91d6c9d0,RS0021,SSLG,São Luís Gonzaga,AD,2018-07-19,SBCW,CINDACTA 2,-28.37638889,-55.0375, 28 22 35S, 055 02 15W,200,M,PUB,NAC,VFR DIURNA,HJ,São Luiz Gonzaga,RS,-3,29/18,2023-03-23,529
airport.1290,1290,MULTIPOINT ((-51.651666666667 -24.529444444444)),357cf235-8026-4654-af6e-04dfb7da7680,PR0026,SSMR,Manoel Ribas,AD,2021-11-18,SBCW,CINDACTA 2,-24.52944444,-51.65166667, 24 31 46S, 051 39 06W,886,M,PUB,NAC,VFR DIURNA,HJ,Manoel Ribas,PR,-3,47/21,2023-03-23,536
airport.2498,2498,MULTIPOINT ((-50.912222222222 -31.104166666667)),1c0e7a86-8a0c-4ccd-bfbc-a4db5983117b,RS0044,SSMT,Mostardas,AD,2019-09-05,SBCW,CINDACTA 2,-31.10416667,-50.91222222, 31 06 15S, 050 54 44W,18,M,PUB,NAC,VFR DIURNA,HJ,Mostardas,RS,-3,36/19,2023-03-23,537
airport.2765,2765,MULTIPOINT ((-51.488888888889 -29.719722222222)),9426e42d-149a-452a-b4b2-35aefb934882,RS0046,SSNG,Montenegro,AD,2018-11-08,SBCW,CINDACTA 2,-29.71972222,-51.48888889, 29 43 11S, 051 29 20W,24,M,PUB,NAC,VFR DIURNA,HJ,Montenegro,RS,-3,45/18,2023-03-23,540
airport.2319,2319,MULTIPOINT ((-62.950555555556 2.726944444444)),845191e9-f899-4a87-92b1-ec4d1f302302,RR0110,SWMV,Paa-Piu,AD,2020-06-04,SBAZ,CINDACTA 4,2.72694444,-62.95055556,02 43 37N,062 57 02W,300,M,PRIV,NAC,VFR DIURNA,HJ,Iracema,RR,-4,23/20,2023-03-23,661
airport.2060,2060,MULTIPOINT ((-42.916666666667 -20.403055555556)),98d29aec-d756-41d0-bcb3-bef3e8cd1303,MG0059,SNCZ,Ponte Nova,AD,2020-10-01,SBCW,CINDACTA 2,-20.40305556,-42.91666667, 20 24 11S, 042 55 00W,572,M,PUB,NAC,VFR DIURNA,HJ,Ponte Nova,MG,-3,40/20,2023-03-23,283
airport.2381,2381,MULTIPOINT ((-41.444444444444 -13.031666666667)),4de25a50-97dd-4f45-b908-a156585c196e,BA0032,SNQU,Mucugê,AD,2020-02-06,SBRE,CINDACTA 3,-13.03166667,-41.44444444, 13 01 54S, 041 26 40W,1055,M,PUB,NAC,VFR DIURNA,HJ,Mucugê,BA,-3,6/20,2023-03-23,406
airport.536,536,MULTIPOINT ((-44.458055555556 -18.749444444444)),36ac4a7a-08bf-4ba4-a51f-5b3bffb33219,MG0044,SNQV,Curvelo,AD,2022-09-22,SBBS,CINDACTA 1,-18.74944444,-44.45805556, 18 44 58S, 044 27 29W,672,M,PUB,NAC,VFR DIURNA,HJ,Curvelo,MG,-3,39/22,2023-03-23,407
airport.4260,4260,MULTIPOINT ((-57.742222222222 -7.564444444444)),7b94c8cd-6cb3-4db6-855e-dcc2478b693a,PA0102,SNQW,Cururu,AD,2018-07-19,SBAZ,CINDACTA 4,-7.56444444,-57.74222222,07 33 52S,057 44 32W,138,M,PRIV,NAC,VFR DIURNA,HJ,Jacareacanga,PA,-3,29/18,2023-03-23,408
airport.3582,3582,MULTIPOINT ((-46.240555555556 -19.2125)),468c0cf7-2862-4fb5-bd85-a4009c2ca6d4,MG0066,SNRP,Rio Paranaíba,AD,2018-07-19,SBBS,CINDACTA 1,-19.2125,-46.24055556, 19 12 45S, 046 14 26W,1145,M,PUB,NAC,VFR DIURNA,HJ,Rio Paranaíba,MG,-3,29/18,2023-03-23,413
airport.357,357,MULTIPOINT ((-46.6275 -7.346388888889)),323023ad-ef5a-451b-8f2e-e045e2ddfca3,MA0009,SNRX,Riachão,AD,2022-12-01,SBAZ,CINDACTA 4,-7.34638889,-46.6275, 07 20 47S, 046 37 39W,400,M,PUB,NAC,VFR DIURNA,HJ,Riachão,MA,-3,49/22,2023-03-23,416
airport.2772,2772,MULTIPOINT ((-51.604166666667 -28.8025)),efa8ba24-16df-40d1-906e-b2060b916402,RS0041,SSNP,Nova Prata,AD,2018-11-08,SBCW,CINDACTA 2,-28.8025,-51.60416667, 28 48 09S, 051 36 15W,690,M,PUB,NAC,VFR DIURNA,HJ,Nova Prata,RS,-3,45/18,2023-03-23,543
airport.2435,2435,MULTIPOINT ((-55.831111111111 -21.184444444444)),9fe56ec4-f4db-4401-a981-561ec0454bc7,MS0016,SSNQ,Nioaque,AD,2019-11-21,SBCW,CINDACTA 2,-21.18444444,-55.83111111, 21 11 04S, 055 49 52W,202,M,PUB,NAC,VFR DIURNA,HJ,Nioaque,MS,-4,47/19,2023-03-23,544
airport.342,342,MULTIPOINT ((-51.490833333333 -23.355833333333)),2db8c048-6f26-489d-9e25-0d15949e5009,PR0027,SSOG,Arapongas,AD,2022-12-08,SBCW,CINDACTA 2,-23.35583333,-51.49083333, 23 21 21S, 051 29 27W,792,M,PUB,NAC,VFR,,Arapongas,PR,-3,50/22,2023-03-23,546
airport.3981,3981,MULTIPOINT ((-53.328888888889 -27.901666666667)),f9be4a6d-3fff-4b9f-8d79-d32e2469bf50,RS0043,SSPL,Palmeira das Missões,AD,2018-07-19,SBCW,CINDACTA 2,-27.90166667,-53.32888889, 27 54 06S, 053 19 44W,635,M,PUB,NAC,VFR DIURNA,HJ,Palmeira das Missões,RS,-3,29/18,2023-03-23,553
airport.1196,1196,MULTIPOINT ((-48.195555555556 -13.549166666667)),1b839bd2-7be4-466f-ab27-bb558cd492c2,GO0019,SWIQ,Minaçu,AD,2022-01-13,SBBS,CINDACTA 1,-13.54916667,-48.19555556, 13 32 57S, 048 11 44W,427,M,PUB,NAC,VFR IFR DIURNA,H24,Minaçu,GO,-3,3/22,2023-03-23,98
airport.54,54,MULTIPOINT ((-46.633888888889 -23.506666666667)),42bd0516-582d-49b7-843a-7fae1980bdab,SP0007,SBMT,CAMPO DE MARTE,AD,2023-03-10,SBCW,CRCEA-SE,-23.50666667,-46.63388889, 23 30 24S, 046 38 02W,722.61,M,PUB/MIL,NAC,VFR,H24,São Paulo,SP,-3,10/23,2023-03-23,105
airport.228,228,MULTIPOINT ((-43.989166666667 -19.909166666667)),9ab98b56-1c3f-4239-ad2f-198e0fce7d19,MG0005,SBPR,CARLOS PRATES,AD,2023-01-05,SBBS,CINDACTA 1,-19.90916667,-43.98916667, 19 54 33S, 043 59 21W,928,M,PUB,NAC,VFR DIURNA,,Belo Horizonte,MG,-3,1/23,2023-03-23,114
airport.1975,1975,MULTIPOINT ((-65.355833333333 -4.883055555556)),f5799dc0-2bab-4be2-87dd-19958b731712,AM0025,SBUY,Urucu,AD,2020-11-12,SBAZ,CINDACTA 4,-4.88305556,-65.35583333, 04 52 59S, 065 21 21W,64,M,PRIV,NAC,VFR IFR,H24,Coari,AM,-4,46/20,2023-03-23,130
airport.1546,1546,MULTIPOINT ((-47.358333333333 -22.336944444444)),517f43a9-0432-4e40-99e7-17d272996b3d,SP0045,SDAA,Araras,AD,2021-06-03,SBBS,CINDACTA 1,-22.33694444,-47.35833333, 22 20 13S, 047 21 30W,685,M,PUB,NAC,VFR DIURNA,HJ,Araras,SP,-3,23/21,2023-03-23,134
airport.1960,1960,MULTIPOINT ((-51.096388888889 -21.696111111111)),eb8e3717-175a-4623-a80d-bae54a0be7ff,SP0046,SDAD,Everaldo Moraes Barreto,AD,2020-11-19,SBCW,CINDACTA 2,-21.69611111,-51.09638889, 21 41 46S, 051 05 47W,425,M,PUB,NAC,VFR DIURNA,HJ,Adamantina,SP,-3,47/20,2023-03-23,135
airport.2644,2644,MULTIPOINT ((-44.307222222222 -22.975277777778)),5a5c7049-ab39-4d0d-a3ec-a169b80600ed,RJ0010,SDAG,Angra dos Reis,AD,2019-05-02,SBCW,CRCEA-SE,-22.97527778,-44.30722222, 22 58 31S, 044 18 26W,3,M,PUB,NAC,VFR DIURNA,HJ,Angra dos Reis,RJ,-3,18/19,2023-03-23,137
airport.3890,3890,MULTIPOINT ((-47.268055555556 -22.755277777778)),c641e8f3-5d77-44d8-a16f-6bf769260188,SP0047,SDAI,Americana,AD,2018-07-19,SBBS,CRCEA-SE,-22.75527778,-47.26805556, 22 45 19S, 047 16 05W,611,M,PUB,NAC,VFR,H24,Americana,SP,-3,29/18,2023-03-23,138
airport.67,67,MULTIPOINT ((-47.108055555556 -22.859166666667)),5d225961-fa88-42ab-9f61-66fa1592a87c,SP0037,SDAM,Estadual de Campos dos Amarais - Prefeito Francisco Amaral,AD,2023-03-09,SBBS,CRCEA-SE,-22.85916667,-47.10805556, 22 51 33S, 047 06 29W,612,M,PUB,NAC,VFR,H24,Campinas,SP,-3,10/23,2023-03-23,139
airport.3412,3412,MULTIPOINT ((-48.473611111111 -20.900277777778)),69a6374c-bb12-4c2d-b517-bbd6de44e8c3,SP0018,SDBB,Bebedouro,AD,2018-07-19,SBBS,CINDACTA 1,-20.90027778,-48.47361111, 20 54 01S, 048 28 25W,592,M,PUB,NAC,VFR DIURNA,HJ,Bebedouro,SP,-3,29/18,2023-03-23,141
airport.250,250,MULTIPOINT ((-48.468055555556 -22.937777777778)),1e28dc04-9adc-4626-9fb4-3641035fdab5,SP0019,SDBK,Botucatu,AD,2023-01-05,SBCW,CINDACTA 2,-22.93777778,-48.46805556, 22 56 16S, 048 28 05W,888,M,PUB,NAC,VFR,H24,Botucatu,SP,-3,1/23,2023-03-23,142
airport.1908,1908,MULTIPOINT ((-48.356944444444 -24.033611111111)),4220c2ab-d7fb-41bb-9fa7-ec67754a905a,SP0051,SDCA,Capão Bonito,AD,2020-12-17,SBCW,CINDACTA 2,-24.03361111,-48.35694444, 24 02 01S, 048 21 25W,714,M,PUB,NAC,VFR DIURNA,HJ,Capão Bonito,SP,-3,51/20,2023-03-23,144
airport.2141,2141,MULTIPOINT ((-47.724444444444 -23.104722222222)),09e55b3b-6d9c-42fb-a7d4-2e1ff109541a,SP0067,SDET,Tietê,AD,2020-08-27,SBCW,CRCEA-SE,-23.10472222,-47.72444444, 23 06 17S, 047 43 28W,501,M,PUB,NAC,VFR DIURNA,HJ,Tietê,SP,-3,35/20,2023-03-23,151
airport.1159,1159,MULTIPOINT ((-50.213888888889 -20.276666666667)),0e583459-106a-4bac-9f97-38741ed18942,SP0054,SDFD,Coronel Aviador Carlos Orleans Guimarães,AD,2022-01-27,SBBS,CINDACTA 1,-20.27666667,-50.21388889, 20 16 36S, 050 12 50W,499,M,PUB,NAC,VFR DIURNA,HJ,Fernandópolis,SP,-3,5/22,2023-03-23,152
airport.1339,1339,MULTIPOINT ((-48.855833333333 -21.747222222222)),562f428f-93e5-4c3d-94b4-b380ea67697d,SP0038,SDIG,Ibitinga,AD,2021-10-28,SBBS,CINDACTA 1,-21.74722222,-48.85583333, 21 44 50S, 048 51 21W,542,M,PUB,NAC,VFR DIURNA,HJ,Ibitinga,SP,-3,44/21,2023-03-23,157
airport.231,231,MULTIPOINT ((-46.785555555556 -24.164722222222)),89ee6852-6958-48ab-b519-76ed45348cd2,SP0033,SDIM,Itanhaém,AD,2023-01-05,SBCW,CRCEA-SE,-24.16472222,-46.78555556, 24 09 53S, 046 47 08W,4,M,PUB,NAC,VFR,H24,Itanhaém,SP,-3,1/23,2023-03-23,158
airport.990,990,MULTIPOINT ((-47.033888888889 -21.487222222222)),240295fc-bece-4d8d-84fc-6396dca194d0,SP0058,SDKK,Mococa,AD,2022-03-24,SBBS,CINDACTA 1,-21.48722222,-47.03388889, 21 29 14S, 047 02 02W,645,M,PUB,NAC,VFR DIURNA,HJ,Mococa,SP,-3,13/22,2023-03-23,169
airport.90,90,MULTIPOINT ((-55.696111111111 -12.498611111111)),40d896a2-7cf8-432b-ae44-9388dd814a26,MT0218,SJSS,Agrifor,AD,2023-02-23,SBAZ,CINDACTA 4,-12.49861111,-55.69611111,12 29 55S,055 41 46W,385,M,PRIV,NAC,VFR DIURNA,HJ,Sorriso,MT,-4,8/23,2023-03-23,1523
airport.2629,2629,MULTIPOINT ((-55.6225 -15.465)),5b085887-cac7-41b3-8d87-9b53e3529d14,MT0219,SJTB,Fazenda Buriti,AD,2019-06-06,SBAZ,CINDACTA 4,-15.465,-55.6225,15 27 54S,055 37 21W,747,M,PRIV,NAC,VFR DIURNA,HJ,Chapada dos Guimarães,MT,-4,23/19,2023-03-23,1527
airport.3631,3631,MULTIPOINT ((-44.820555555556 -7.534444444444)),1282d253-bac5-4957-871e-b1250212757e,PI0031,SJZS,Fazenda Canel,AD,2018-07-19,SBRE,CINDACTA 3,-7.53444444,-44.82055556,07 32 04S,044 49 14W,390,M,PRIV,NAC,VFR DIURNA,HJ,Uruçuí,PI,-3,29/18,2023-03-23,1625
airport.3971,3971,MULTIPOINT ((-48.738055555556 -23.286666666667)),4fdd723a-32ec-4f66-9aaa-1d01ab326516,SP0223,SJZW,Fazenda Regina,AD,2018-07-19,SBCW,CINDACTA 2,-23.28666667,-48.73805556,23 17 12S,048 44 17W,623,M,PRIV,NAC,VFR DIURNA,HJ,Itatinga,SP,-3,29/18,2023-03-23,1627
airport.3546,3546,MULTIPOINT ((-38.023611111111 -12.489722222222)),c23d0589-34e7-467e-bc1d-70e5a036af7c,BA0140,SNME,Costa dos Coqueiros,AD,2018-07-19,SBRE,CINDACTA 3,-12.48972222,-38.02361111, 12 29 23S, 038 01 25W,51,M,PRIV,NAC,VFR DIURNA,DLY,Mata de São João,BA,-3,29/18,2023-03-23,1731
airport.4688,4688,MULTIPOINT ((-46.250555555556 -21.350555555556)),9ca56652-65d3-4ad0-ba40-a7ca27a17ae4,MG0157,SNMF,Agropastoril Monte Alegre,AD,2018-07-19,SBBS,CINDACTA 1,-21.35055556,-46.25055556,21 21 02S,046 15 02W,866,M,PRIV,NAC,VFR DIURNA,HJ,Monte Belo,MG,-3,29/18,2023-03-23,1732
airport.2123,2123,MULTIPOINT ((-35.824722222222 -9.544166666667)),1ae753a9-1108-42a9-a15c-5abd8752d66c,AL0009,SNML,Manduca Leão,AD,2020-08-27,SBRE,CINDACTA 3,-9.54416667,-35.82472222, 09 32 39S, 035 49 29W,123,M,PRIV,NAC,VFR DIURNA,HJ,Rio Largo,AL,-3,35/20,2023-03-23,1733
airport.3051,3051,MULTIPOINT ((-39.863333333333 -18.049444444444)),48aa6b75-369d-4ad7-9b8b-8cef468cceeb,BA0142,SNMU,Mucuri,AD,2018-07-19,SBRE,CINDACTA 3,-18.04944444,-39.86333333,18 02 58S,039 51 48W,84,M,PRIV,NAC,VFR DIURNA,HJ,Mucuri,BA,-3,29/18,2023-03-23,1734
airport.2898,2898,MULTIPOINT ((-54.6297 -23.0186)),06bdcf3e-6fdb-493a-9e87-241da4627760,MS0236,SNWO,Fazenda Vera Cruz,AD,2018-07-19,SBCW,CINDACTA 2,-23.0186,-54.6297,23 01 07S,054 37 47W,305,M,PRIV,NAC,VFR DIURNA,HJ,Amambai,MS,-4,29/18,2023-03-23,1836
airport.1411,1411,MULTIPOINT ((-44.02 -4.513055555556)),b749c4f8-cbaa-482c-ad40-9633924e101b,MA0042,SNXH,Itapicuru,AD,2021-09-09,SBAZ,CINDACTA 4,-4.51305556,-44.02,04 30 47S,044 01 12W,56,M,PRIV,NAC,VFR,,Codó,MA,-3,37/21,2023-03-23,1842
airport.1605,1605,MULTIPOINT ((-52.769166666667 -6.538888888889)),80d56f43-b396-4de3-b80e-fa76970a7558,PA0111,SNXK,Fazenda Lagoa do Triunfo,AD,2021-05-06,SBAZ,CINDACTA 4,-6.53888889,-52.76916667,06 32 20S,052 46 09W,170,M,PRIV,NAC,VFR DIURNA,HJ,São Félix do Xingu,PA,-3,19/21,2023-03-23,1844
airport.2396,2396,MULTIPOINT ((-56.520277777778 -7.389722222222)),7fffe86a-8e24-4a8c-8374-3a9bc395acc3,PA0112,SNXR,Fazenda Conforto,AD,2020-01-30,SBAZ,CINDACTA 4,-7.38972222,-56.52027778, 07 23 23S, 056 31 13W,235,M,PRIV,NAC,VFR DIURNA,HJ,Itaituba,PA,-3,5/20,2023-03-23,1848
airport.3287,3287,MULTIPOINT ((-50.5286 -2.7003)),fcf017f5-5780-45e4-8f1e-247b6da634a2,PA0113,SNXY,Cikel Brasil Verde,AD,2018-07-19,SBAZ,CINDACTA 4,-2.7003,-50.5286,02 42 01S,050 31 43W,30,M,PRIV,NAC,VFR DIURNA,HJ,Portel,PA,-3,29/18,2023-03-23,1851
airport.3064,3064,MULTIPOINT ((-57.401944444444 -6.134722222222)),b6036d29-bd5a-4d92-b303-63fa44909f06,PA0115,SNYJ,Pista São Jorge,AD,2018-07-19,SBAZ,CINDACTA 4,-6.13472222,-57.40194444,06 08 05S,057 24 07W,234,M,PRIV,NAC,VFR DIURNA,HJ,Jacareacanga,PA,-3,29/18,2023-03-23,1856
airport.2741,2741,MULTIPOINT ((-45.995555555556 -18.222777777778)),d681aa90-7ca4-4505-9e1c-08e7f2b737a2,MG0171,SNYS,WD Agroindustrial,AD,2018-12-06,SBBS,CINDACTA 1,-18.22277778,-45.99555556, 18 13 22S, 045 59 44W,975,M,PRIV,NAC,VFR DIURNA,HJ,João Pinheiro,MG,-3,49/18,2023-03-23,1863
airport.4206,4206,MULTIPOINT ((-48.634444444444 -2.116944444444)),2233d38a-ef18-421d-85e0-eec596bfa1c1,PA0118,SNYV,Fazenda Sococo,AD,2018-07-19,SBAZ,CINDACTA 4,-2.11694444,-48.63444444,02 07 11S,048 38 45W,31,M,PRIV,NAC,VFR DIURNA,HJ,Moju,PA,-3,29/18,2023-03-23,1864
airport.1994,1994,MULTIPOINT ((-48.236666666667 -23.861111111111)),7ef35016-81aa-4c16-9773-13f3e8c52ac3,SP0241,SNZG,Fazenda São Benedito,AD,2020-10-29,SBCW,CINDACTA 2,-23.86111111,-48.23666667,23 51 40S,048 14 12W,620,M,PRIV,NAC,VFR DIURNA,HJ,Capão Bonito,SP,-3,44/20,2023-03-23,1872
airport.3907,3907,MULTIPOINT ((-44.043333333333 -15.023333333333)),b5ceccc8-c4ee-4207-904d-1ce42f7b71f9,MG0174,SNZK,Fazenda Canadá,AD,2018-07-19,SBRE,CINDACTA 3,-15.02333333,-44.04333333,15 01 24S,044 02 36W,460,M,PRIV,NAC,VFR DIURNA,HJ,Itacarambi,MG,-3,29/18,2023-03-23,1874
airport.3671,3671,MULTIPOINT ((-35.536388888889 -5.297222222222)),5341b71e-f0d5-4176-a11a-49d2621b8e6b,RN0009,SNZO,Fazenda Bebida Velha,AD,2018-07-19,SBRE,CINDACTA 3,-5.29722222,-35.53638889,05 17 50S,035 32 11W,61,M,PRIV,NAC,VFR DIURNA,HJ,Touros,RN,-3,29/18,2023-03-23,1876
airport.3710,3710,MULTIPOINT ((-48.333611111111 -3.505)),1374806d-effb-4af4-b176-c0c6d09ef239,PA0120,SNZT,Fazenda Recreio,AD,2018-07-19,SBAZ,CINDACTA 4,-3.505,-48.33361111,03 30 18S,048 20 01W,152,M,PRIV,NAC,VFR DIURNA,HJ,Paragominas,PA,-3,29/18,2023-03-23,1877
airport.4250,4250,MULTIPOINT ((-48.232777777778 -2.855555555556)),0e44196e-6e34-4c6d-853f-33b841f0fd50,PA0121,SNZU,Fazenda Nova Conceição,AD,2018-07-19,SBAZ,CINDACTA 4,-2.85555556,-48.23277778,02 51 20S,048 13 58W,74,M,PRIV,NAC,VFR DIURNA,HJ,Tomé-Açu,PA,-3,29/18,2023-03-23,1878
airport.3880,3880,MULTIPOINT ((-47.477777777778 -3.722777777778)),87e1f854-4da1-4857-b138-f334b1aa31d5,PA0122,SNZV,Fazenda Jamaica,AD,2018-07-19,SBAZ,CINDACTA 4,-3.72277778,-47.47777778,03 43 22S,047 28 40W,110,M,PRIV,NAC,VFR DIURNA,HJ,Ulianópolis,PA,-3,29/18,2023-03-23,1879
airport.4448,4448,MULTIPOINT ((-36.1989 -9.9678)),5c7fed09-84d3-4581-a0b8-64ef56de4928,AL0013,SNZZ,Muzzi,AD,2018-07-19,SBRE,CINDACTA 3,-9.9678,-36.1989,09 58 04S,036 11 56W,101,M,PRIV,NAC,VFR DIURNA,HJ,Coruripe,AL,-3,29/18,2023-03-23,1881
airport.3472,3472,MULTIPOINT ((-54.470555555556 -25.369722222222)),e1a14fa3-d652-42cd-90a0-92b94f4557d0,PR0071,SSAF,Aeroclube de Foz do Iguaçu,AD,2018-07-19,SBCW,CINDACTA 2,-25.36972222,-54.47055556,25 22 11S,054 28 14W,256,M,PRIV,NAC,VFR DIURNA,HJ,Santa Terezinha de Itaipu,PR,-3,29/18,2023-03-23,1883
airport.3180,3180,MULTIPOINT ((-52.7256 -19.7167)),9d774050-a499-4bc4-808c-f8bc758f035f,MS0244,SSAG,Fazenda  Lobo,AD,2018-07-19,SBCW,CINDACTA 2,-19.7167,-52.7256,19 43 00S,052 43 32W,430,M,PRIV,NAC,VFR DIURNA,HJ,Água Clara,MS,-4,29/18,2023-03-23,1884
airport.3922,3922,MULTIPOINT ((-57.475 -21.689722222222)),af5cbf8c-20c7-4ee6-a7d5-c8156662ce6a,MS0245,SSAV,Fazenda Amonguijá,AD,2018-07-19,SBCW,CINDACTA 2,-21.68972222,-57.475, 21 41 23S, 057 28 30W,141,M,PRIV,NAC,VFR DIURNA,HJ,Porto Murtinho,MS,-4,29/18,2023-03-23,1889
airport.4118,4118,MULTIPOINT ((-51.536388888889 -29.148333333333)),b1378338-c15b-4d40-9ebf-e24f02848ea9,RS0091,SSBG,Aeroclube de Bento Gonçalves,AD,2018-07-19,SBCW,CINDACTA 2,-29.14833333,-51.53638889,29 08 54S,051 32 11W,673,M,PRIV,NAC,VFR DIURNA,HJ,Bento Gonçalves,RS,-3,29/18,2023-03-23,1895
airport.2716,2716,MULTIPOINT ((-53.095 -22.325)),5d722da1-9563-41c5-a968-bd461db8d8bb,MS0250,SSBT,Fazenda Santa Ilídia,AD,2019-02-07,SBCW,CINDACTA 2,-22.325,-53.095, 22 19 30S, 053 05 42W,287,M,PRIV,NAC,VFR DIURNA,HJ,Batayporã,MS,-4,6/19,2023-03-23,1901
airport.199,199,MULTIPOINT ((-54.795833333333 -18.445555555556)),5bb05140-d9dc-47a9-bdec-a81124dd17bf,MS0253,SSBX,Fazenda Lageado,AD,2023-01-19,SBCW,CINDACTA 2,-18.44555556,-54.79583333, 18 26 44S, 054 47 45W,232,M,PRIV,NAC,VFR DIURNA,HJ,Coxim,MS,-4,3/23,2023-03-23,1904
airport.3618,3618,MULTIPOINT ((-56.794166666667 -20.099444444444)),d44ba8cc-4160-4c3a-b3aa-bf9b0583e7da,MS0254,SSBY,Orlando Chesini Ometto,AD,2018-07-19,SBCW,CINDACTA 2,-20.09944444,-56.79416667,20 05 58S,056 47 39W,135,M,PRIV,NAC,VFR DIURNA,HJ,Miranda,MS,-4,29/18,2023-03-23,1905
airport.619,619,MULTIPOINT ((-54.661666666667 -21.541666666667)),cc8939b2-0696-4b31-b809-b7962dd56bcc,MS0257,SSCJ,Fazenda Celeiro,AD,2022-08-31,SBCW,CINDACTA 2,-21.54166667,-54.66166667,21 32 30S,054 39 42W,326,M,PRIV,NAC,VFR DIURNA,HJ,Rio Brilhante,MS,-4,35/22,2023-03-23,1910
airport.3279,3279,MULTIPOINT ((-52.451388888889 -31.774166666667)),caab361c-b2f5-4603-8ae0-5f6beedc8044,RS0092,SSCO,Cmt. Marilda Zaiden de Mesquita,AD,2018-07-19,SBCW,CINDACTA 2,-31.77416667,-52.45138889,31 46 27S,052 27 05W,10,M,PRIV,NAC,VFR DIURNA,HJ,Capão do Leão,RS,-3,29/18,2023-03-23,1912
airport.4004,4004,MULTIPOINT ((-50.4794 -8.8681)),e5efe27d-d311-4cf0-8a55-e913217ea8ec,PA0123,SSCU,Fazenda Santa Marina,AD,2018-07-19,SBAZ,CINDACTA 4,-8.8681,-50.4794,08 52 05S,050 28 46W,307,M,PRIV,NAC,VFR DIURNA,HJ,Santa Maria das Barreiras,PA,-3,29/18,2023-03-23,1913
airport.4824,4824,MULTIPOINT ((-52.316666666667 -28.116666666667)),49468ef5-6bb3-4800-97bc-fe2206f90b79,RS0093,SSCX,Fazenda Coxilha,AD,2018-07-19,SBCW,CINDACTA 2,-28.11666667,-52.31666667,28 07 00S,052 19 00W,650,M,PRIV,NAC,VFR DIURNA,HJ,Coxilha,RS,-3,29/18,2023-03-23,1916
airport.3238,3238,MULTIPOINT ((-43.705555555556 -5.658333333333)),120a78a6-8e20-4974-9fa4-0bb27620f5fc,MA0044,SSDI,Fazenda Bacatuba,AD,2018-07-19,SBRE,CINDACTA 3,-5.65833333,-43.70555556,05 39 30S,043 42 20W,178,M,PRIV,NAC,VFR DIURNA,HJ,Buriti Bravo,MA,-3,29/18,2023-03-23,1921
airport.4108,4108,MULTIPOINT ((-45.3333 -8.0089)),282f9921-da0a-4a3d-bb00-040c8b9a9801,PI0034,SSDL,Fazenda Ribeirão,AD,2018-07-19,SBRE,CINDACTA 3,-8.0089,-45.3333,08 00 32S,045 20 59W,484,M,PRIV,NAC,VFR DIURNA,HJ,Ribeiro Gonçalves,PI,-3,29/18,2023-03-23,1924
airport.452,452,MULTIPOINT ((-60.175 -14.463611111111)),393d4776-3207-4753-8c15-d5e91b80d295,MT0284,SSDP,Fazenda Fortaleza do Guaporé,AD,2022-10-27,SBAZ,CINDACTA 4,-14.46361111,-60.175, 14 27 49S, 060 10 30W,237,M,PRIV,NAC,VFR DIURNA,HJ,Vila Bela da Santíssima Trindade,MT,-4,44/22,2023-03-23,1927
airport.4302,4302,MULTIPOINT ((-50.176388888889 -7.943611111111)),ebb57d78-5cdf-4e8f-8ec7-407ff1286730,PA0124,SSDT,Fazenda Pau D'Arco,AD,2018-07-19,SBAZ,CINDACTA 4,-7.94361111,-50.17638889,07 56 37S,050 10 35W,242,M,PRIV,NAC,VFR DIURNA,HJ,Redenção,PA,-3,29/18,2023-03-23,1930
airport.3536,3536,MULTIPOINT ((-55.464722222222 -18.215555555556)),360dc55a-9bd1-4f7a-bcc0-68a62c7d93ec,MS0260,SSDV,Fazenda Santa Maria,AD,2018-07-19,SBCW,CINDACTA 2,-18.21555556,-55.46472222,18 12 56S,055 27 53W,155,M,PRIV,NAC,VFR DIURNA,HJ,Corumbá,MS,-4,29/18,2023-03-23,1932
airport.4754,4754,MULTIPOINT ((-50.491666666667 -2.875833333333)),84f532b1-4409-4cdd-b684-4e45688f5133,PA0083,SNBN,Balbinot,AD,2018-07-19,SBAZ,CINDACTA 4,-2.87583333,-50.49166667,02 52 33S,050 29 30W,62,M,PRIV,NAC,VFR DIURNA,HJ,Portel,PA,-3,29/18,2023-03-23,1639
airport.4559,4559,MULTIPOINT ((-55.535555555556 -12.915555555556)),ea1cb7ed-b4c4-4b29-b7e9-7f5fb08e4dd6,MT0287,SSDW,Fazenda Potrich,AD,2018-07-19,SBAZ,CINDACTA 4,-12.91555556,-55.53555556,12 54 56S,055 32 08W,407,M,PRIV,NAC,VFR DIURNA,HJ,Sorriso,MT,-4,29/18,2023-03-23,1933
airport.4042,4042,MULTIPOINT ((-51.700555555556 -31)),92abe82f-749e-4230-ad48-fa22403447cd,RS0094,SSDX,Fazenda da Coxilha,AD,2018-07-19,SBCW,CINDACTA 2,-31,-51.70055556,31 00 00S,051 42 02W,10,M,PRIV,NAC,VFR DIURNA,HJ,Camaquã,RS,-3,29/18,2023-03-23,1934
airport.3232,3232,MULTIPOINT ((-47.231111111111 -21.326944444444)),7b2151ab-6a8d-4688-848f-86df02bf0605,SP0244,SSEF,Fazenda Passaredo,AD,2018-07-19,SBBS,CINDACTA 1,-21.32694444,-47.23111111,21 19 37S,047 13 52W,1412,M,PRIV,NAC,VFR DIURNA,HJ,Cajuru,SP,-3,29/18,2023-03-23,1936
airport.24,24,MULTIPOINT ((-57.131388888889 -18.087222222222)),5d42cef1-21a2-4daa-9e3d-6641b56b9bdd,MS0263,SSEV,Fazenda São Camilo,AD,2023-03-16,SBCW,CINDACTA 2,-18.08722222,-57.13138889,18 05 14S,057 07 53W,88,M,PRIV,NAC,VFR DIURNA,HJ,Corumbá,MS,-4,11/23,2023-03-23,1943
airport.3599,3599,MULTIPOINT ((-48.309722222222 -23.145555555556)),d6cd7844-768a-4058-a6a8-ca5c90737531,SP0245,SSEW,Sítio Limoeiro,AD,2018-07-19,SBCW,CINDACTA 2,-23.14555556,-48.30972222,23 08 44S,048 18 35W,940,M,PRIV,NAC,VFR DIURNA,HJ,Pardinho,SP,-3,29/18,2023-03-23,1944
airport.729,729,MULTIPOINT ((-56.311666666667 -19.968888888889)),6bd2a3b2-d0f7-4833-bf76-3e59f4a3ae6c,MS0264,SSEX,Estância Caiman,AD,2022-07-28,SBCW,CINDACTA 2,-19.96888889,-56.31166667,19 58 08S,056 18 42W,130,M,PRIV,NAC,VFR DIURNA,HJ,Miranda,MS,-4,31/22,2023-03-23,1945
airport.4367,4367,MULTIPOINT ((-47.8117 -19.7853)),229fc51f-f205-4089-b454-544d6dd00e05,MG0180,SSFH,Vale dos Dinossauros,AD,2018-07-19,SBBS,CINDACTA 1,-19.7853,-47.8117,19 47 07S,047 48 42W,743,M,PRIV,NAC,VFR DIURNA,HJ,Uberaba,MG,-3,29/18,2023-03-23,1952
airport.1252,1252,MULTIPOINT ((-54.618055555556 -20.810833333333)),924a38d0-13d3-4e3b-870c-616c8b004db5,MS0268,SSFJ,Fazenda Retiro da Cachoeira,AD,2021-12-16,SBCW,CINDACTA 2,-20.81083333,-54.61805556,20 48 39S,054 37 05W,445,M,PRIV,NAC,VFR DIURNA,HJ,Campo Grande,MS,-4,51/21,2023-03-23,1954
airport.4625,4625,MULTIPOINT ((-51.833611111111 -20.501944444444)),1ad1d3f6-89f4-4c53-a124-3e4e3b7f1ddd,MS0271,SSGE,Fazenda Periquitos,AD,2018-07-19,SBCW,CINDACTA 2,-20.50194444,-51.83361111,20 30 25S,051 50 21W,360,M,PRIV,NAC,VFR DIURNA,HJ,Três Lagoas,MS,-4,29/18,2023-03-23,1961
airport.4607,4607,MULTIPOINT ((-53.223611111111 -20.197222222222)),3c1c685b-2e8a-444c-9783-4625862ea621,MS0272,SSGF,Fazenda Formosa,AD,2018-07-19,SBCW,CINDACTA 2,-20.19722222,-53.22361111,20 11 50S,053 13 25W,500,M,PRIV,NAC,VFR DIURNA,HJ,Ribas do Rio Pardo,MS,-4,29/18,2023-03-23,1962
airport.4087,4087,MULTIPOINT ((-56.068333333333 -20.073611111111)),7ec2edf3-bc75-49a8-bd3a-e16108b02edb,MS0273,SSGH,Fazenda Capão Verde,AD,2018-07-19,SBCW,CINDACTA 2,-20.07361111,-56.06833333,20 04 25S,056 04 06W,125,M,PRIV,NAC,VFR DIURNA,HJ,Aquidauana,MS,-4,29/18,2023-03-23,1964
airport.4574,4574,MULTIPOINT ((-56.274444444444 -17.250277777778)),10841b07-3ab7-4069-88d2-7e2b9487186f,MS0274,SSGJ,Fazenda Poleiro Grande,AD,2018-07-19,SBAZ,CINDACTA 4,-17.25027778,-56.27444444, 17 15 01S, 056 16 28W,119,M,PRIV,NAC,VFR DIURNA,HJ,Corumbá,MS,-4,29/18,2023-03-23,1966
airport.4120,4120,MULTIPOINT ((-56.5625 -21.693333333333)),be24f2c0-a704-47dc-8b01-530b2756fce7,MS0275,SSGM,Fazenda Seriema,AD,2018-07-19,SBCW,CINDACTA 2,-21.69333333,-56.5625,21 41 36S,056 33 45W,321,M,PRIV,NAC,VFR DIURNA,HJ,Bela Vista,MS,-4,29/18,2023-03-23,1968
airport.4113,4113,MULTIPOINT ((-54.587777777778 -19.429166666667)),2c608518-15fe-421e-9054-9dae1ff774eb,MS0277,SSGO,Rosada,AD,2018-07-19,SBCW,CINDACTA 2,-19.42916667,-54.58777778,19 25 45S,054 35 16W,668,M,PRIV,NAC,VFR,,São Gabriel do Oeste,MS,-4,29/18,2023-03-23,1970
airport.19,19,MULTIPOINT ((-54.323333333333 -21.764722222222)),7dbf0c24-35ac-47e8-a3ac-b7e989640a5f,MS0278,SSGQ,Fazenda Capivari,AD,2023-03-23,SBCW,CINDACTA 2,-21.76472222,-54.32333333,21 45 53S,054 19 24W,331,M,PRIV,NAC,VFR DIURNA,HJ,Rio Brilhante,MS,-4,12/23,2023-03-23,1972
airport.1456,1456,MULTIPOINT ((-54.813888888889 -21.698888888889)),a5d31ad5-169f-4b2d-b7cb-3758b89d7ff2,MS0280,SSGT,Fazenda Capão Alto,AD,2021-08-12,SBCW,CINDACTA 2,-21.69888889,-54.81388889,21 41 56S,054 48 50W,320,M,PRIV,NAC,VFR DIURNA,HJ,Rio Brilhante,MS,-4,33/21,2023-03-23,1974
airport.584,584,MULTIPOINT ((-55.769444444444 -20.480833333333)),1c794224-00a7-480e-8763-e5b900d878e9,MS0282,SSHA,Aeroclube de Aquidauana,AD,2022-09-08,SBCW,CINDACTA 2,-20.48083333,-55.76944444,20 28 51S,055 46 10W,189,M,PRIV,NAC,VFR DIURNA,HJ,Aquidauana,MS,-4,37/22,2023-03-23,1978
airport.4322,4322,MULTIPOINT ((-55.581388888889 -22.586944444444)),afa42c48-8b7c-485f-a574-851a638fdeaf,MS0283,SSHK,Fazenda Jaguarundy,AD,2018-07-19,SBCW,CINDACTA 2,-22.58694444,-55.58138889,22 35 13S,055 34 53W,628,M,PRIV,NAC,VFR DIURNA,HJ,Ponta Porã,MS,-4,29/18,2023-03-23,1986
airport.334,334,MULTIPOINT ((-51.875555555556 -23.245)),03a4bc7a-d0eb-4cd7-9524-fae676211fc7,PR0079,SSHN,Recanto das Águias,AD,2022-12-08,SBCW,CINDACTA 2,-23.245,-51.87555556,23 14 42S,051 52 32W,465,M,PRIV,NAC,VFR,,Iguaraçu,PR,-3,50/22,2023-03-23,1988
airport.4197,4197,MULTIPOINT ((-56.716944444444 -10.131388888889)),df7360f4-c030-410f-a594-9bb352981768,MT0291,SSHT,Ingazeira,AD,2018-07-19,SBAZ,CINDACTA 4,-10.13138889,-56.71694444,10 07 53S,056 43 01W,274,M,PRIV,NAC,VFR DIURNA,HJ,Alta Floresta,MT,-4,29/18,2023-03-23,1990
airport.3436,3436,MULTIPOINT ((-55.299722222222 -23.925)),e6c76e1f-f3da-4586-92b4-d15cf6dc5436,MS0285,SSHX,Fazenda Jatobá,AD,2018-07-19,SBCW,CINDACTA 2,-23.925,-55.29972222,23 55 30S,055 17 59W,407,M,PRIV,NAC,VFR DIURNA,HJ,Paranhos,MS,-4,29/18,2023-03-23,1993
airport.3061,3061,MULTIPOINT ((-54.824444444444 -22.306666666667)),d757a097-119e-482b-80ac-4783c47b574a,MS0286,SSIC,APLIC Aviação Agrícola LTDA,AD,2018-07-19,SBCW,CINDACTA 2,-22.30666667,-54.82444444,22 18 24S,054 49 28W,428,M,PRIV,NAC,VFR DIURNA,HJ,Dourados,MS,-4,29/18,2023-03-23,1995
airport.1366,1366,MULTIPOINT ((-48.096388888889 -22.051388888889)),90ed6b72-4176-4910-97ab-e5a59725e49b,SP0248,SSIS,Major José Ignácio,AD,2021-10-07,SBBS,CINDACTA 1,-22.05138889,-48.09638889,22 03 05S,048 05 47W,598,M,PRIV,NAC,VFR DIURNA,HJ,Ibaté,SP,-3,41/21,2023-03-23,2002
airport.308,308,MULTIPOINT ((-52.4972 -18.8514)),48d43461-741f-4abf-be71-5b3dba43bae6,MS0291,SSJM,Fazenda Júlio Martins,AD,2022-12-22,SBBS,CINDACTA 1,-18.8514,-52.4972,18 51 05S,052 29 50W,799,M,PRIV,NAC,VFR DIURNA,HJ,Chapadão do Sul,MS,-4,52/22,2023-03-23,2012
airport.3737,3737,MULTIPOINT ((-51.874166666667 -12.806666666667)),ec36dd42-f7b1-4a26-88c8-f12ef54fa55f,MT0293,SSJQ,Fazenda Floresta,AD,2018-07-19,SBBS,CINDACTA 1,-12.80666667,-51.87416667,12 48 24S,051 52 27W,362,M,PRIV,NAC,VFR DIURNA,HJ,Ribeirão Cascalheira,MT,-4,29/18,2023-03-23,2015
airport.3409,3409,MULTIPOINT ((-56.48 -17.9425)),299b909f-a30e-463a-8efe-8959e23529ad,MS0293,SSJV,Fazenda Piratininga,AD,2018-07-19,SBCW,CINDACTA 2,-17.9425,-56.48,17 56 33S,056 28 48W,46,M,PRIV,NAC,VFR DIURNA,HJ,Corumbá,MS,-4,29/18,2023-03-23,2017
airport.3031,3031,MULTIPOINT ((-53.558888888889 -21.7825)),4b8b702b-8837-42eb-97a7-3c3bb99b66d0,MS0294,SSJW,Fazenda Jauru,AD,2018-07-19,SBCW,CINDACTA 2,-21.7825,-53.55888889,21 46 57S,053 33 32W,307,M,PRIV,NAC,VFR DIURNA,HJ,Nova Andradina,MS,-4,29/18,2023-03-23,2018
airport.3486,3486,MULTIPOINT ((-56.217222222222 -17.7075)),10e00a86-c915-417d-b824-184ab712c5f0,MS0296,SSJY,Fazenda São João,AD,2018-07-19,SBAZ,CINDACTA 4,-17.7075,-56.21722222,17 42 27S,056 13 02W,46,M,PRIV,NAC,VFR DIURNA,HJ,Corumbá,MS,-4,29/18,2023-03-23,2019
airport.4229,4229,MULTIPOINT ((-50.461944444444 -14.541111111111)),2ee6faa6-ea02-4f62-9517-f227b7b916ef,GO0107,SSKQ,Fazenda Santa Rosa,AD,2018-07-19,SBBS,CINDACTA 1,-14.54111111,-50.46194444,14 32 28S,050 27 43W,291,M,PRIV,NAC,VFR DIURNA,HJ,Nova Crixás,GO,-3,29/18,2023-03-23,2029
airport.4422,4422,MULTIPOINT ((-50.816388888889 -17.163611111111)),96442c9c-bd61-40b9-b9d1-d4c92de9d93c,GO0108,SSKR,Fazenda Primavera,AD,2018-07-19,SBBS,CINDACTA 1,-17.16361111,-50.81638889,17 09 49S,050 48 59W,704,M,PRIV,NAC,VFR DIURNA,HJ,Paraúna,GO,-3,29/18,2023-03-23,2030
airport.3798,3798,MULTIPOINT ((-58.358888888889 -14.469444444444)),e82febc9-d322-4a75-b854-dc33782c22bb,MT0296,SSKY,Fazenda Querência,AD,2018-07-19,SBAZ,CINDACTA 4,-14.46944444,-58.35888889,14 28 10S,058 21 32W,731,M,PRIV,NAC,VFR DIURNA,HJ,Tangará da Serra,MT,-4,29/18,2023-03-23,2034
airport.4230,4230,MULTIPOINT ((-56.758888888889 -18.643333333333)),8063d3b8-aab5-44b6-a879-aef55fd28caf,MS0301,SSLD,Fazenda Lourdes,AD,2018-07-19,SBCW,CINDACTA 2,-18.64333333,-56.75888889,18 38 36S,056 45 32W,100,M,PRIV,NAC,VFR DIURNA,HJ,Corumbá,MS,-4,29/18,2023-03-23,2037
airport.4347,4347,MULTIPOINT ((-63.843055555556 3.288055555556)),60f4d301-4e37-4c11-9aac-64479ea6df40,RR0069,SJMI,Parafuri,AD,2018-07-19,SBAZ,CINDACTA 4,3.28805556,-63.84305556,03 17 17N,063 50 35W,606,M,PRIV,NAC,VFR DIURNA,HJ,Alto Alegre,RR,-4,29/18,2023-03-23,1429
airport.4714,4714,MULTIPOINT ((-60.267777777778 4.457222222222)),49811dae-1ad3-434e-bf7a-ddc345a3efd8,RR0070,SJMJ,Pedra Branca,AD,2018-07-19,SBAZ,CINDACTA 4,4.45722222,-60.26777778,04 27 26N,060 16 04W,454,M,PRIV,NAC,VFR DIURNA,HJ,Uiramutã,RR,-4,29/18,2023-03-23,1430
airport.3863,3863,MULTIPOINT ((-60.476388888889 4.713055555556)),a3c3de3d-e8b3-433d-860b-fdda533a72a3,RR0071,SJMK,Pedra Preta,AD,2018-07-19,SBAZ,CINDACTA 4,4.71305556,-60.47638889,04 42 47N,060 28 35W,667,M,PRIV,NAC,VFR DIURNA,HJ,Uiramutã,RR,-4,29/18,2023-03-23,1431
airport.4465,4465,MULTIPOINT ((-60.733611111111 4.701388888889)),bf6dfe48-aa4b-4edc-acb2-febb68105aff,RR0072,SJML,Piolho,AD,2018-07-19,SBAZ,CINDACTA 4,4.70138889,-60.73361111,04 42 05N,060 44 01W,697,M,PRIV,NAC,VFR DIURNA,HJ,Pacaraima,RR,-4,29/18,2023-03-23,1432
airport.4676,4676,MULTIPOINT ((-60.321944444444 4.93)),c9a07f46-5db9-4520-9de6-7a6885579941,RR0073,SJMM,Pipi,AD,2018-07-19,SBAZ,CINDACTA 4,4.93,-60.32194444,04 55 48N,060 19 19W,788,M,PRIV,NAC,VFR DIURNA,HJ,Uiramutã,RR,-4,29/18,2023-03-23,1433
airport.3305,3305,MULTIPOINT ((-60.090277777778 3.81)),fa5822bf-de67-4fc4-9f99-74a466fa9307,RR0074,SJMN,Raposa,AD,2018-07-19,SBAZ,CINDACTA 4,3.81,-60.09027778,03 48 36N,060 05 25W,151,M,PRIV,NAC,VFR DIURNA,HJ,Normandia,RR,-4,29/18,2023-03-23,1434
airport.4354,4354,MULTIPOINT ((-60.8625 4.47)),6fbbc9cc-be26-4348-bcc8-2cfcab3123c6,RR0075,SJMO,Santa Isabel,AD,2018-07-19,SBAZ,CINDACTA 4,4.47,-60.8625,04 28 12N,060 51 45W,364,M,PRIV,NAC,VFR DIURNA,HJ,Pacaraima,RR,-4,29/18,2023-03-23,1435
airport.3938,3938,MULTIPOINT ((-60.256944444444 4.2875)),5efc65ce-bcd2-44b0-adbf-a09ccd295d24,RR0076,SJMP,Santa Liberdade,AD,2018-07-19,SBAZ,CINDACTA 4,4.2875,-60.25694444,04 17 15N,060 15 25W,576,M,PRIV,NAC,VFR DIURNA,HJ,Uiramutã,RR,-4,29/18,2023-03-23,1436
airport.1758,1758,MULTIPOINT ((-56.502222222222 -12.723055555556)),058f2e74-3f1b-4761-8d88-a59434797abc,MT0221,SJTP,Tapurah,AD,2021-03-04,SBAZ,CINDACTA 4,-12.72305556,-56.50222222,12 43 23S,056 30 08W,384,M,PRIV,NAC,VFR DIURNA,HJ,Tapurah,MT,-4,10/21,2023-03-23,1535
airport.2887,2887,MULTIPOINT ((-48.330555555556 -3.419722222222)),d86b0ea1-1158-4f84-afc8-5dc0aa2401e2,PA0082,SNAJ,Fazenda Jaguaré,AD,2018-07-19,SBAZ,CINDACTA 4,-3.41972222,-48.33055556,03 25 11S,048 19 50W,133,M,PRIV,NAC,VFR DIURNA,HJ,Paragominas,PA,-3,29/18,2023-03-23,1632
airport.3079,3079,MULTIPOINT ((-40.369444444444 -9.504166666667)),dcd10410-f354-4bd6-81e1-00ef21894791,BA0130,SNAV,Agrovale,AD,2018-07-19,SBRE,CINDACTA 3,-9.50416667,-40.36944444, 09 30 15S, 040 22 10W,393,M,PRIV,NAC,VFR DIURNA,HJ,Juazeiro,BA,-3,29/18,2023-03-23,1633
airport.4335,4335,MULTIPOINT ((-53.939722222222 -2.523611111111)),cd7472ba-fe72-4201-a95b-a0936e85bf07,PA0084,SNCB,Castanhal,AD,2018-07-19,SBAZ,CINDACTA 4,-2.52361111,-53.93972222, 02 31 25S, 053 56 23W,153,M,PRIV,NAC,VFR DIURNA,HJ,Prainha,PA,-3,29/18,2023-03-23,1643
airport.3749,3749,MULTIPOINT ((-47.205277777778 -1.236111111111)),78a76467-2719-4340-8630-6d1067024e98,PA0085,SNCI,Cibrasa,AD,2018-07-19,SBAZ,CINDACTA 4,-1.23611111,-47.20527778,01 14 10S,047 12 19W,53,M,PRIV,NAC,VFR DIURNA,HJ,Capanema,PA,-3,29/18,2023-03-23,1644
airport.4517,4517,MULTIPOINT ((-53.75 -18.35)),b1bd254d-3420-42c6-9806-57de327a594f,MS0218,SNMV,Fazenda Flávia,AD,2018-07-19,SBCW,CINDACTA 2,-18.35,-53.75,18 21 00S,053 45 00W,381,M,PRIV,NAC,VFR DIURNA,HJ,Alcinópolis,MS,-4,29/18,2023-03-23,1735
airport.2794,2794,MULTIPOINT ((-51.496666666667 -25.566111111111)),661c432c-867b-4ea6-8099-6b13d81308c6,PR0066,SNNM,Entre Rios,AD,2018-10-11,SBCW,CINDACTA 2,-25.56611111,-51.49666667,25 33 58S,051 29 48W,1098,M,PRIV,NAC,VFR DIURNA,HJ,Guarapuava,PR,-3,41/18,2023-03-23,1740
airport.3087,3087,MULTIPOINT ((-35.413611111111 -5.661388888889)),233979d0-b045-42e1-9ce9-e6ea74a4c095,RN0008,SNOG,Ceará Mirim,AD,2018-07-19,SBRE,CINDACTA 3,-5.66138889,-35.41361111,05 39 41S,035 24 49W,52,M,PRIV,NAC,VFR DIURNA,HJ,Ceará-Mirim,RN,-3,29/18,2023-03-23,1747
airport.2854,2854,MULTIPOINT ((-47.651111111111 -2.327222222222)),6e6dceef-5cdf-4811-947e-e77e2991d517,PA0100,SNOK,Fazenda Chão de Estrelas,AD,2018-07-19,SBAZ,CINDACTA 4,-2.32722222,-47.65111111,02 19 38S,047 39 04W,38,M,PRIV,NAC,VFR DIURNA,HJ,Aurora do Pará,PA,-3,29/18,2023-03-23,1750
airport.3074,3074,MULTIPOINT ((-60.137777777778 4.170277777778)),025ae5bb-9674-4663-83c9-06d4db59cdbd,RR0077,SJMQ,Santa Maria de Normandia,AD,2018-07-19,SBAZ,CINDACTA 4,4.17027778,-60.13777778,04 10 13N,060 08 16W,258,M,PRIV,NAC,VFR DIURNA,HJ,Normandia,RR,-4,29/18,2023-03-23,1437
airport.3990,3990,MULTIPOINT ((-60.990555555556 4.490277777778)),a91c55b1-f11d-4f88-940e-985ee96f3406,RR0078,SJMT,São Miguel Cachoeirinha,AD,2018-07-19,SBAZ,CINDACTA 4,4.49027778,-60.99055556,04 29 25N,060 59 26W,364,M,PRIV,NAC,VFR DIURNA,HJ,Pacaraima,RR,-4,29/18,2023-03-23,1439
airport.2976,2976,MULTIPOINT ((-60.435555555556 4.989722222222)),ff5103f9-61cb-4efe-a210-d62d047f6e6a,RR0079,SJMU,Sauparú,AD,2018-07-19,SBAZ,CINDACTA 4,4.98972222,-60.43555556,04 59 23N,060 26 08W,697,M,PRIV,NAC,VFR DIURNA,HJ,Uiramutã,RR,-4,29/18,2023-03-23,1440
airport.4305,4305,MULTIPOINT ((-60.475277777778 4.9425)),e4162cc1-b598-4238-8aea-605737747bcd,RR0080,SJMV,Serra do Sol,AD,2018-07-19,SBAZ,CINDACTA 4,4.9425,-60.47527778,04 56 33N,060 28 31W,756,M,PRIV,NAC,VFR DIURNA,HJ,Uiramutã,RR,-4,29/18,2023-03-23,1441
airport.4669,4669,MULTIPOINT ((-60.176944444444 4.47)),92c7be2f-34fe-4fe1-a13c-6acdf37a1747,RR0081,SJMW,Socó,AD,2018-07-19,SBAZ,CINDACTA 4,4.47,-60.17694444,04 28 12N,060 10 37W,515,M,PRIV,NAC,VFR DIURNA,HJ,Uiramutã,RR,-4,29/18,2023-03-23,1442
airport.4694,4694,MULTIPOINT ((-60.858333333333 4.575277777778)),a1c401e1-52ba-4b5a-ae1e-4fc6a893a959,RR0082,SJMX,Suapí,AD,2018-07-19,SBAZ,CINDACTA 4,4.57527778,-60.85833333,04 34 31N,060 51 30W,758,M,PRIV,NAC,VFR DIURNA,HJ,Pacaraima,RR,-4,29/18,2023-03-23,1443
airport.3173,3173,MULTIPOINT ((-60.802222222222 4.501666666667)),992e5154-ba28-43ce-89c8-9bbf34aa809a,RR0083,SJNB,Ubarú,AD,2018-07-19,SBAZ,CINDACTA 4,4.50166667,-60.80222222,04 30 06N,060 48 08W,364,M,PRIV,NAC,VFR DIURNA,HJ,Pacaraima,RR,-4,29/18,2023-03-23,1445
airport.2798,2798,MULTIPOINT ((-60.219166666667 -15.183333333333)),9f27a935-3b88-474e-b9a0-ddcdaae9754b,MT0225,SJUB,Fazenda Rio Azul,AD,2018-10-04,SBAZ,CINDACTA 4,-15.18333333,-60.21916667, 15 11 00S, 060 13 09W,297,M,PRIV,NAC,VFR DIURNA,HJ,Vila Bela da Santíssima Trindade,MT,-4,40/18,2023-03-23,1541
airport.2869,2869,MULTIPOINT ((-49.035833333333 -22.87)),a21a595b-e367-4d3e-816d-fc8492361902,SP0217,SJUL,Fazenda Rio Pardo,AD,2018-07-19,SBCW,CINDACTA 2,-22.87,-49.03583333,22 52 12S,049 02 09W,669,M,PRIV,NAC,VFR DIURNA,HJ,Iaras,SP,-3,29/18,2023-03-23,1546
airport.230,230,MULTIPOINT ((-38.91 -13.389444444444)),0dbf64d8-e32b-4cc9-8df5-a235d901da3e,BA0131,SNCL,Lorenzo,AD,2023-01-05,SBRE,CINDACTA 3,-13.38944444,-38.91,13 23 22S,038 54 36W,1,M,PRIV,NAC,VFR DIURNA,HJ,Cairu,BA,-3,1/23,2023-03-23,1646
airport.3304,3304,MULTIPOINT ((-36.285277777778 -10.222777777778)),e0ace0d7-4522-410f-961a-6c1833f82f10,AL0006,SNCY,Campo da Praia,AD,2018-07-19,SBRE,CINDACTA 3,-10.22277778,-36.28527778,10 13 22S,036 17 07W,42,M,PRIV,NAC,VFR DIURNA,HJ,Coruripe,AL,-3,29/18,2023-03-23,1647
airport.3431,3431,MULTIPOINT ((-45.0225 -12.160277777778)),08bede94-4c8d-4b4a-94e9-5027f826b3fb,BA0132,SNDH,ABA,AD,2018-07-19,SBRE,CINDACTA 3,-12.16027778,-45.0225,12 09 37S,045 01 21W,513,M,PRIV,NAC,VFR DIURNA,HJ,Barreiras,BA,-3,29/18,2023-03-23,1649
airport.1271,1271,MULTIPOINT ((-36.291666666667 -10.122222222222)),43f488ce-7862-466e-8c90-cc3c1a5e0198,AL0010,SNOV,Povoado de Camaçari,AD,2021-12-09,SBRE,CINDACTA 3,-10.12222222,-36.29166667, 10 07 20S, 036 17 30W,85,M,PRIV,NAC,VFR DIURNA,HJ,Coruripe,AL,-3,50/21,2023-03-23,1755
airport.2968,2968,MULTIPOINT ((-50.972222222222 -21.982222222222)),0f08e0c6-91f7-46cf-8392-d76e79c7858d,SP0232,SNOW,Fazenda Turmalina,AD,2018-07-19,SBCW,CINDACTA 2,-21.98222222,-50.97222222,21 58 56S,050 58 20W,433,M,PRIV,NAC,VFR DIURNA,HJ,Rancharia,SP,-3,29/18,2023-03-23,1756
airport.1500,1500,MULTIPOINT ((-44.124166666667 -2.523611111111)),3861eb55-d272-477a-8a20-0348b7a70c1b,MA0041,SNOZ,Coronel Alexandre Raposo,AD,2021-07-15,SBAZ,CINDACTA 4,-2.52361111,-44.12416667, 02 31 25S, 044 07 27W,47,M,PRIV,NAC,VFR DIURNA,HJ,Paço do Lumiar,MA,-3,29/21,2023-03-23,1757
airport.3885,3885,MULTIPOINT ((-62.217777777778 3.134444444444)),ad54732b-1903-4c99-8332-6072f37671de,RR0084,SJNC,Uraricoera,AD,2018-07-19,SBAZ,CINDACTA 4,3.13444444,-62.21777778,03 08 46N,062 13 49W,242,M,PRIV,NAC,VFR DIURNA,HJ,Alto Alegre,RR,-4,29/18,2023-03-23,1446
airport.3358,3358,MULTIPOINT ((-59.957222222222 1.99)),fd8be395-621d-4dba-9c04-42a58fec60b3,RR0085,SJNE,Wapum,AD,2018-07-19,SBAZ,CINDACTA 4,1.99,-59.95722222,01 59 24N,059 57 26W,151,M,PRIV,NAC,VFR DIURNA,HJ,Caracaraí,RR,-4,29/18,2023-03-23,1447
airport.3453,3453,MULTIPOINT ((-60.1761 4.635)),f0d433f4-1ef3-4415-b782-7822e4b0c0e8,RR0086,SJNF,Wilimon,AD,2018-07-19,SBAZ,CINDACTA 4,4.635,-60.1761,04 38 06N,060 10 34W,530,M,PRIV,NAC,VFR DIURNA,HJ,Uiramutã,RR,-4,29/18,2023-03-23,1448
airport.3367,3367,MULTIPOINT ((-63.869444444444 2.606944444444)),1d824915-cfee-47a2-a354-e3d3ee9580a1,RR0087,SJNG,Xidea,AD,2018-07-19,SBAZ,CINDACTA 4,2.60694444,-63.86944444,02 36 25N,063 52 10W,606,M,PRIV,NAC,VFR DIURNA,HJ,Alto Alegre,RR,-4,29/18,2023-03-23,1449
airport.3588,3588,MULTIPOINT ((-61.642777777778 -12.081666666667)),54e787f9-2d46-41b6-ae6b-96bb1b2277a3,RO0017,SJNK,Fazenda Três Perobas,AD,2018-07-19,SBAZ,CINDACTA 4,-12.08166667,-61.64277778,12 04 54S,061 38 34W,341,M,PRIV,NAC,VFR DIURNA,HJ,Santa Luzia D'Oeste,RO,-4,29/18,2023-03-23,1450
airport.2039,2039,MULTIPOINT ((-57.580833333333 -13.620277777778)),52ab7d37-3673-42c7-92ef-cff6c592a5c3,MT0194,SJNL,Fazenda Reata,AD,2020-10-08,SBAZ,CINDACTA 4,-13.62027778,-57.58083333,13 37 13S,057 34 51W,546,M,PRIV,NAC,VFR DIURNA,HJ,Campo Novo do Parecis,MT,-4,41/20,2023-03-23,1451
airport.3878,3878,MULTIPOINT ((-51.157777777778 -15.076666666667)),13c7e3dc-2857-4a47-9b86-eba174c06b41,GO0089,SJUS,Fazenda Acará,AD,2018-07-19,SBBS,CINDACTA 1,-15.07666667,-51.15777778,15 04 36S,051 09 28W,262,M,PRIV,NAC,VFR DIURNA,HJ,Britânia,GO,-3,29/18,2023-03-23,1548
airport.304,304,MULTIPOINT ((-46.871111111111 -14.028055555556)),2c0de945-c78b-495a-a8b1-78716f0c0260,GO0090,SJUU,Fazenda Paraná,AD,2022-12-22,SBBS,CINDACTA 1,-14.02805556,-46.87111111,14 01 41S,046 52 16W,442,M,PRIV,NAC,VFR DIURNA,HJ,Nova Roma,GO,-3,52/22,2023-03-23,1549
airport.982,982,MULTIPOINT ((-56.129444444444 -9.891944444444)),b092d220-e0ac-455d-b622-d4746d7d4036,MT0232,SJVM,Estância Califórnia,AD,2022-03-24,SBAZ,CINDACTA 4,-9.89194444,-56.12944444,09 53 31S,056 07 46W,288,M,PRIV,NAC,VFR DIURNA,HJ,Alta Floresta,MT,-4,13/22,2023-03-23,1555
airport.3362,3362,MULTIPOINT ((-60.083888888889 -0.799166666667)),54fe127b-5b27-4b87-9c4f-d4eba12f781c,AM0035,SJVP,Vila Pitinga,AD,2018-07-19,SBAZ,CINDACTA 4,-0.79916667,-60.08388889,00 47 57S,060 05 02W,267,M,PRIV,NAC,VFR DIURNA,HJ,Presidente Figueiredo,AM,-4,29/18,2023-03-23,1557
airport.1989,1989,MULTIPOINT ((-42.873611111111 -5.080833333333)),646aaf84-f56d-46a2-b1b2-ace407f233ee,MA0035,SNDR,Domingos Rego,AD,2020-10-29,SBRE,CINDACTA 3,-5.08083333,-42.87361111, 05 04 51S, 042 52 25W,92,M,PRIV,NAC,VFR,H24,Timon,MA,-3,44/20,2023-03-23,1652
airport.3016,3016,MULTIPOINT ((-39.1425 -16.7125)),9f234c86-3b84-491a-8e6f-399a4cf96de4,BA0134,SNEC,Outeiro das Brisas,AD,2018-07-19,SBRE,CINDACTA 3,-16.7125,-39.1425,16 42 45S,039 08 33W,38,M,PRIV,NAC,VFR DIURNA,HJ,Porto Seguro,BA,-3,29/18,2023-03-23,1655
airport.3345,3345,MULTIPOINT ((-57.3411 -14.1181)),3413b049-eca1-4567-abbd-d548eb91583a,MT0264,SNQI,Fazenda Camagril Agropecuária,AD,2018-07-19,SBAZ,CINDACTA 4,-14.1181,-57.3411,14 07 05S,057 20 28W,840,M,PRIV,NAC,VFR DIURNA,HJ,Diamantino,MT,-4,29/18,2023-03-23,1764
airport.2337,2337,MULTIPOINT ((-57.232222222222 -16.721111111111)),db78060f-3abd-4288-8318-cb40f180d0d1,MT0266,SNQR,Fazenda Bahia - Don Bosco,AD,2020-04-30,SBAZ,CINDACTA 4,-16.72111111,-57.23222222,16 43 16S,057 13 56W,118,M,PRIV,NAC,VFR DIURNA,HJ,Poconé,MT,-4,18/20,2023-03-23,1769
airport.3008,3008,MULTIPOINT ((-54.043888888889 -22.302777777778)),5df1849b-c1ca-4ff8-a518-53fbe9263c10,MS0226,SNQS,Fazenda Nossa Senhora Auxiliadora,AD,2018-07-19,SBCW,CINDACTA 2,-22.30277778,-54.04388889,22 18 10S,054 02 38W,432,M,PRIV,NAC,VFR DIURNA,HJ,Ivinhema,MS,-4,29/18,2023-03-23,1770
airport.4790,4790,MULTIPOINT ((-53.479722222222 -23.795833333333)),bd040c5c-87e2-49fe-8494-d11f12460a56,PR0067,SNQT,Fazenda Estrela do Sul,AD,2018-07-19,SBCW,CINDACTA 2,-23.79583333,-53.47972222,23 47 45S,053 28 47W,470,M,PRIV,NAC,VFR DIURNA,HJ,Umuarama,PR,-3,29/18,2023-03-23,1771
airport.3209,3209,MULTIPOINT ((-55.9408 -13.9939)),bd44f4f3-da34-41c3-b87d-4b602e20f46a,MT0195,SJNM,Fazenda Santa Luzia,AD,2018-07-19,SBAZ,CINDACTA 4,-13.9939,-55.9408,13 59 38S,055 56 27W,465,M,PRIV,NAC,VFR DIURNA,HJ,Nova Mutum,MT,-4,29/18,2023-03-23,1452
airport.2933,2933,MULTIPOINT ((-40.157777777778 -17.485)),11558ac3-9068-45aa-a3ec-2d0982b360db,BA0118,SJNQ,Destilaria Medasa,AD,2018-07-19,SBRE,CINDACTA 3,-17.485,-40.15777778,17 29 06S,040 09 28W,200,M,PRIV,NAC,VFR DIURNA,HJ,Caravelas,BA,-3,29/18,2023-03-23,1454
airport.637,637,MULTIPOINT ((-51.713055555556 -13.038888888889)),1675be15-5b35-4519-b856-087854c8518c,MT0196,SJNU,Fazenda Campo Alto,AD,2022-08-25,SBBS,CINDACTA 1,-13.03888889,-51.71305556,13 02 20S,051 42 47W,308,M,PRIV,NAC,VFR DIURNA,HJ,Ribeirão Cascalheira,MT,-4,35/22,2023-03-23,1456
airport.4243,4243,MULTIPOINT ((-50.256388888889 -18.430277777778)),3a77ac6d-01be-418e-a949-7e68d07cba33,GO0081,SJNV,Fazenda São Francisco,AD,2018-07-19,SBBS,CINDACTA 1,-18.43027778,-50.25638889,18 25 49S,050 15 23W,566,M,PRIV,NAC,VFR DIURNA,HJ,Gouvelândia,GO,-3,29/18,2023-03-23,1457
airport.2878,2878,MULTIPOINT ((-55.216111111111 -9.6325)),09c44f54-7983-4b48-afca-f5b25746b779,MT0197,SJNW,Fazenda Nhandu,AD,2018-07-19,SBAZ,CINDACTA 4,-9.6325,-55.21611111,09 37 57S,055 12 58W,344,M,PRIV,NAC,VFR DIURNA,HJ,Novo Mundo,MT,-4,29/18,2023-03-23,1458
airport.3931,3931,MULTIPOINT ((-56.486388888889 -21.4875)),ed6baac3-3a6b-42e5-97f6-90e6e1ff3eaa,MS0186,SJVR,Fazenda São Joaquim,AD,2018-07-19,SBCW,CINDACTA 2,-21.4875,-56.48638889,21 29 15S,056 29 11W,368,M,PRIV,NAC,VFR DIURNA,HJ,Jardim,MS,-4,29/18,2023-03-23,1559
airport.4263,4263,MULTIPOINT ((-46.5225 -16.7169)),5e0a5b1e-0875-488b-92ad-51db41be5fbb,MG0143,SNFA,Fazenda Santo Antônio,AD,2018-07-19,SBBS,CINDACTA 1,-16.7169,-46.5225,16 43 01S,046 31 21W,547,M,PRIV,NAC,VFR DIURNA,HJ,Unaí,MG,-3,29/18,2023-03-23,1664
